[
  {
    "id": "735563",
    "name": "Koz\u00e1ni",
    "country": "Pirai\u00f3s Nom\u00f3s",
    "lat": 40.30069,
    "lon": 21.78896
  },
  {
    "id": "735640",
    "name": "Komotin\u00ed",
    "country": "Pirai\u00f3s Nom\u00f3s",
    "lat": 41.11917,
    "lon": 25.40535
  },
  {
    "id": "2995041",
    "name": "Maurepas",
    "country": "France",
    "lat": 48.76486,
    "lon": 1.92923
  },
  {
    "id": "2996180",
    "name": "Manosque",
    "country": "France",
    "lat": 43.82883,
    "lon": 5.78688
  },
  {
    "id": "3000192",
    "name": "Les Mureaux",
    "country": "France",
    "lat": 48.99173,
    "lon": 1.90972
  },
  {
    "id": "735736",
    "name": "Kilk\u00eds",
    "country": "Pirai\u00f3s Nom\u00f3s",
    "lat": 40.99302,
    "lon": 22.87433
  },
  {
    "id": "3004427",
    "name": "Le Creusot",
    "country": "France",
    "lat": 46.80714,
    "lon": 4.41632
  },
  {
    "id": "3019256",
    "name": "\u00c9vry",
    "country": "France",
    "lat": 48.63333,
    "lon": 2.45
  },
  {
    "id": "3019265",
    "name": "\u00c9vreux",
    "country": "France",
    "lat": 49.02414,
    "lon": 1.15082
  },
  {
    "id": "3021411",
    "name": "Dieppe",
    "country": "France",
    "lat": 49.93333,
    "lon": 1.08333
  },
  {
    "id": "3022530",
    "name": "Cr\u00e9teil",
    "country": "France",
    "lat": 48.78333,
    "lon": 2.46667
  },
  {
    "id": "3029241",
    "name": "Caen",
    "country": "France",
    "lat": 49.18585,
    "lon": -0.35912
  },
  {
    "id": "3029276",
    "name": "Cachan",
    "country": "France",
    "lat": 48.79632,
    "lon": 2.33661
  },
  {
    "id": "3030300",
    "name": "Brest",
    "country": "France",
    "lat": 48.4,
    "lon": -4.48333
  },
  {
    "id": "3030303",
    "name": "Bressuire",
    "country": "France",
    "lat": 46.85,
    "lon": -0.48333
  },
  {
    "id": "3035654",
    "name": "Avon",
    "country": "France",
    "lat": 48.40219,
    "lon": 2.72022
  },
  {
    "id": "3035667",
    "name": "Avion",
    "country": "France",
    "lat": 50.41038,
    "lon": 2.83053
  },
  {
    "id": "3037854",
    "name": "Amiens",
    "country": "France",
    "lat": 49.9,
    "lon": 2.3
  },
  {
    "id": "3108165",
    "name": "Teo",
    "country": "Spain",
    "lat": 42.75,
    "lon": -8.5
  },
  {
    "id": "2509305",
    "name": "Zubia",
    "country": "Spain",
    "lat": 37.11906,
    "lon": -3.584
  },
  {
    "id": "2509377",
    "name": "Zafra",
    "country": "Spain",
    "lat": 38.41667,
    "lon": -6.41667
  },
  {
    "id": "2509402",
    "name": "Yecla",
    "country": "Spain",
    "lat": 38.61365,
    "lon": -1.11468
  },
  {
    "id": "2509463",
    "name": "Villena",
    "country": "Spain",
    "lat": 38.6373,
    "lon": -0.86568
  },
  {
    "id": "2509491",
    "name": "Villarrobledo",
    "country": "Spain",
    "lat": 39.26992,
    "lon": -2.60119
  },
  {
    "id": "2509509",
    "name": "Vila-real",
    "country": "Spain",
    "lat": 39.9383,
    "lon": -0.10087
  },
  {
    "id": "2509553",
    "name": "Villanueva de la Serena",
    "country": "Spain",
    "lat": 38.97655,
    "lon": -5.7974
  },
  {
    "id": "2509588",
    "name": "Villajoyosa",
    "country": "Spain",
    "lat": 38.50754,
    "lon": -0.23346
  },
  {
    "id": "2509650",
    "name": "V\u00edcar",
    "country": "Spain",
    "lat": 36.83155,
    "lon": -2.64273
  },
  {
    "id": "2509769",
    "name": "V\u00e9lez-M\u00e1laga",
    "country": "Spain",
    "lat": 36.78107,
    "lon": -4.10266
  },
  {
    "id": "2509954",
    "name": "Valencia",
    "country": "Spain",
    "lat": 39.46975,
    "lon": -0.37739
  },
  {
    "id": "2509982",
    "name": "Valdepe\u00f1as",
    "country": "Spain",
    "lat": 38.76211,
    "lon": -3.38483
  },
  {
    "id": "2510073",
    "name": "Utrera",
    "country": "Spain",
    "lat": 37.18516,
    "lon": -5.78093
  },
  {
    "id": "2510112",
    "name": "Ubrique",
    "country": "Spain",
    "lat": 36.67777,
    "lon": -5.446
  },
  {
    "id": "2510116",
    "name": "\u00dabeda",
    "country": "Spain",
    "lat": 38.01328,
    "lon": -3.3705
  },
  {
    "id": "2510224",
    "name": "Totana",
    "country": "Spain",
    "lat": 37.7688,
    "lon": -1.50229
  },
  {
    "id": "2510245",
    "name": "Torrox",
    "country": "Spain",
    "lat": 36.75793,
    "lon": -3.95233
  },
  {
    "id": "2510253",
    "name": "Torrevieja",
    "country": "Spain",
    "lat": 37.97872,
    "lon": -0.68222
  },
  {
    "id": "2510271",
    "name": "Torre-Pacheco",
    "country": "Spain",
    "lat": 37.74293,
    "lon": -0.95396
  },
  {
    "id": "2510279",
    "name": "Torrent",
    "country": "Spain",
    "lat": 39.43705,
    "lon": -0.46546
  },
  {
    "id": "2510281",
    "name": "Torremolinos",
    "country": "Spain",
    "lat": 36.62035,
    "lon": -4.49976
  },
  {
    "id": "1185188",
    "name": "Rangpur",
    "country": "Bangladesh",
    "lat": 25.74664,
    "lon": 89.25166
  },
  {
    "id": "1337248",
    "name": "Sherpur",
    "country": "Bangladesh",
    "lat": 25.01881,
    "lon": 90.01751
  },
  {
    "id": "2994087",
    "name": "Meylan",
    "country": "France",
    "lat": 45.21988,
    "lon": 5.79007
  },
  {
    "id": "2995121",
    "name": "Mauguio",
    "country": "France",
    "lat": 43.6181,
    "lon": 4.00739
  },
  {
    "id": "735861",
    "name": "Kav\u00e1la",
    "country": "Pirai\u00f3s Nom\u00f3s",
    "lat": 40.93959,
    "lon": 24.40687
  },
  {
    "id": "2995150",
    "name": "Maubeuge",
    "country": "France",
    "lat": 50.27875,
    "lon": 3.97267
  },
  {
    "id": "2995206",
    "name": "Massy",
    "country": "France",
    "lat": 48.72692,
    "lon": 2.28301
  },
  {
    "id": "2967438",
    "name": "Wasquehal",
    "country": "France",
    "lat": 50.67043,
    "lon": 3.13382
  },
  {
    "id": "2970110",
    "name": "Vend\u00f4me",
    "country": "France",
    "lat": 47.8,
    "lon": 1.06667
  },
  {
    "id": "2998286",
    "name": "Limoges",
    "country": "France",
    "lat": 45.83153,
    "lon": 1.25781
  },
  {
    "id": "2972049",
    "name": "Trappes",
    "country": "France",
    "lat": 48.77413,
    "lon": 2.01781
  },
  {
    "id": "3010025",
    "name": "La Ciotat",
    "country": "France",
    "lat": 43.17476,
    "lon": 5.60449
  },
  {
    "id": "3012937",
    "name": "Hy\u00e8res",
    "country": "France",
    "lat": 43.11954,
    "lon": 6.13897
  },
  {
    "id": "3040051",
    "name": "les Escaldes",
    "country": "Andorra",
    "lat": 42.50729,
    "lon": 1.53414
  },
  {
    "id": "3041563",
    "name": "Andorra la Vella",
    "country": "Andorra",
    "lat": 42.50779,
    "lon": 1.52109
  },
  {
    "id": "290594",
    "name": "Umm al Qaywayn",
    "country": "United Arab Emirates",
    "lat": 25.56473,
    "lon": 55.55517
  },
  {
    "id": "291074",
    "name": "Ras al-Khaimah",
    "country": "United Arab Emirates",
    "lat": 25.78953,
    "lon": 55.9432
  },
  {
    "id": "291696",
    "name": "Khawr Fakk\u0101n",
    "country": "United Arab Emirates",
    "lat": 25.33132,
    "lon": 56.34199
  },
  {
    "id": "292223",
    "name": "Dubai",
    "country": "United Arab Emirates",
    "lat": 25.0657,
    "lon": 55.17128
  },
  {
    "id": "292231",
    "name": "Dibba Al-Fujairah",
    "country": "United Arab Emirates",
    "lat": 25.59246,
    "lon": 56.26176
  },
  {
    "id": "292672",
    "name": "Sharjah",
    "country": "United Arab Emirates",
    "lat": 25.33737,
    "lon": 55.41206
  },
  {
    "id": "292688",
    "name": "Ar Ruways",
    "country": "United Arab Emirates",
    "lat": 24.11028,
    "lon": 52.73056
  },
  {
    "id": "292878",
    "name": "Al Fujayrah",
    "country": "United Arab Emirates",
    "lat": 25.11641,
    "lon": 56.34141
  },
  {
    "id": "292913",
    "name": "Al Ain",
    "country": "United Arab Emirates",
    "lat": 24.19167,
    "lon": 55.76056
  },
  {
    "id": "292932",
    "name": "Ajman",
    "country": "United Arab Emirates",
    "lat": 25.41111,
    "lon": 55.43504
  },
  {
    "id": "292953",
    "name": "Adh Dhayd",
    "country": "United Arab Emirates",
    "lat": 25.28812,
    "lon": 55.88157
  },
  {
    "id": "292968",
    "name": "Abu Dhabi",
    "country": "United Arab Emirates",
    "lat": 24.46667,
    "lon": 54.36667
  },
  {
    "id": "1120985",
    "name": "Zaranj",
    "country": "Afghanistan",
    "lat": 30.95962,
    "lon": 61.86037
  },
  {
    "id": "1123004",
    "name": "Taloqan",
    "country": "Afghanistan",
    "lat": 36.73605,
    "lon": 69.53451
  },
  {
    "id": "1125155",
    "name": "Sh\u012bn\u1e0fan\u1e0f",
    "country": "Afghanistan",
    "lat": 33.30294,
    "lon": 62.1474
  },
  {
    "id": "1125444",
    "name": "Shibirgh\u0101n",
    "country": "Afghanistan",
    "lat": 36.66757,
    "lon": 65.7529
  },
  {
    "id": "1125896",
    "name": "Shahrak",
    "country": "Afghanistan",
    "lat": 34.10737,
    "lon": 64.3052
  },
  {
    "id": "1127110",
    "name": "Sar-e Pul",
    "country": "Afghanistan",
    "lat": 36.21544,
    "lon": 65.93249
  },
  {
    "id": "1127628",
    "name": "Sang-e Ch\u0101rak",
    "country": "Afghanistan",
    "lat": 35.84972,
    "lon": 66.43694
  },
  {
    "id": "1127768",
    "name": "A\u012bbak",
    "country": "Afghanistan",
    "lat": 36.26468,
    "lon": 68.01551
  },
  {
    "id": "1128265",
    "name": "Rust\u0101q",
    "country": "Afghanistan",
    "lat": 37.12604,
    "lon": 69.83045
  },
  {
    "id": "1129516",
    "name": "Qarq\u012bn",
    "country": "Afghanistan",
    "lat": 37.41853,
    "lon": 66.04358
  },
  {
    "id": "1129648",
    "name": "Qar\u0101wul",
    "country": "Afghanistan",
    "lat": 37.21959,
    "lon": 68.7802
  },
  {
    "id": "1130490",
    "name": "Pul-e Khumr\u012b",
    "country": "Afghanistan",
    "lat": 35.94458,
    "lon": 68.71512
  },
  {
    "id": "1131316",
    "name": "Paghm\u0101n",
    "country": "Afghanistan",
    "lat": 34.58787,
    "lon": 68.95091
  },
  {
    "id": "1132495",
    "name": "Nahr\u012bn",
    "country": "Afghanistan",
    "lat": 36.0649,
    "lon": 69.13343
  },
  {
    "id": "1133453",
    "name": "Maymana",
    "country": "Afghanistan",
    "lat": 35.92139,
    "lon": 64.78361
  },
  {
    "id": "1133574",
    "name": "Mehtar L\u0101m",
    "country": "Afghanistan",
    "lat": 34.67139,
    "lon": 70.20944
  },
  {
    "id": "1133616",
    "name": "Maz\u0101r-e Shar\u012bf",
    "country": "Afghanistan",
    "lat": 36.70904,
    "lon": 67.11087
  },
  {
    "id": "1134720",
    "name": "Lashkar G\u0101h",
    "country": "Afghanistan",
    "lat": 31.59382,
    "lon": 64.37161
  },
  {
    "id": "1135158",
    "name": "Kushk",
    "country": "Afghanistan",
    "lat": 33.29565,
    "lon": 61.95221
  },
  {
    "id": "1135689",
    "name": "Kunduz",
    "country": "Afghanistan",
    "lat": 36.72895,
    "lon": 68.857
  },
  {
    "id": "1136469",
    "name": "Kh\u014dst",
    "country": "Afghanistan",
    "lat": 33.33951,
    "lon": 69.92041
  },
  {
    "id": "1136575",
    "name": "Khulm",
    "country": "Afghanistan",
    "lat": 36.69736,
    "lon": 67.69826
  },
  {
    "id": "1136863",
    "name": "Kh\u0101sh",
    "country": "Afghanistan",
    "lat": 31.52919,
    "lon": 62.79055
  },
  {
    "id": "1137168",
    "name": "Khanabad",
    "country": "Afghanistan",
    "lat": 36.6825,
    "lon": 69.11556
  },
  {
    "id": "1137807",
    "name": "Karukh",
    "country": "Afghanistan",
    "lat": 34.48108,
    "lon": 62.5863
  },
  {
    "id": "1138336",
    "name": "Kandah\u0101r",
    "country": "Afghanistan",
    "lat": 31.61332,
    "lon": 65.71013
  },
  {
    "id": "1138958",
    "name": "Kabul",
    "country": "Afghanistan",
    "lat": 34.52813,
    "lon": 69.17233
  },
  {
    "id": "1139715",
    "name": "Jal\u0101l\u0101b\u0101d",
    "country": "Afghanistan",
    "lat": 34.42647,
    "lon": 70.45153
  },
  {
    "id": "1139807",
    "name": "Jabal os Saraj",
    "country": "Afghanistan",
    "lat": 35.11833,
    "lon": 69.23778
  },
  {
    "id": "1140026",
    "name": "Her\u0101t",
    "country": "Afghanistan",
    "lat": 34.34817,
    "lon": 62.19967
  },
  {
    "id": "1141089",
    "name": "Ghormach",
    "country": "Afghanistan",
    "lat": 35.73062,
    "lon": 63.78264
  },
  {
    "id": "1141269",
    "name": "Ghazni",
    "country": "Afghanistan",
    "lat": 33.55391,
    "lon": 68.42096
  },
  {
    "id": "1141540",
    "name": "Gereshk",
    "country": "Afghanistan",
    "lat": 31.82089,
    "lon": 64.57005
  },
  {
    "id": "1141857",
    "name": "Gardez",
    "country": "Afghanistan",
    "lat": 33.59744,
    "lon": 69.22592
  },
  {
    "id": "1142170",
    "name": "Fayzabad",
    "country": "Afghanistan",
    "lat": 37.11664,
    "lon": 70.58002
  },
  {
    "id": "1142264",
    "name": "Farah",
    "country": "Afghanistan",
    "lat": 32.37451,
    "lon": 62.11638
  },
  {
    "id": "1142404",
    "name": "Kafir Qala",
    "country": "Afghanistan",
    "lat": 34.66667,
    "lon": 61.06667
  },
  {
    "id": "1145352",
    "name": "Charikar",
    "country": "Afghanistan",
    "lat": 35.01361,
    "lon": 69.17139
  },
  {
    "id": "1147066",
    "name": "Baraki Barak",
    "country": "Afghanistan",
    "lat": 33.96744,
    "lon": 68.9492
  },
  {
    "id": "1147242",
    "name": "B\u0101my\u0101n",
    "country": "Afghanistan",
    "lat": 34.82156,
    "lon": 67.82734
  },
  {
    "id": "1147290",
    "name": "Balkh",
    "country": "Afghanistan",
    "lat": 36.75635,
    "lon": 66.8972
  },
  {
    "id": "1147540",
    "name": "Baghl\u0101n",
    "country": "Afghanistan",
    "lat": 36.13068,
    "lon": 68.70829
  },
  {
    "id": "1148106",
    "name": "\u0100rt Khw\u0101jah",
    "country": "Afghanistan",
    "lat": 37.08571,
    "lon": 69.47958
  },
  {
    "id": "1148205",
    "name": "\u0100sm\u0101r",
    "country": "Afghanistan",
    "lat": 35.03333,
    "lon": 71.35809
  },
  {
    "id": "1148311",
    "name": "Asad\u0101b\u0101d",
    "country": "Afghanistan",
    "lat": 34.87311,
    "lon": 71.14697
  },
  {
    "id": "1148658",
    "name": "Andkh\u014dy",
    "country": "Afghanistan",
    "lat": 36.95293,
    "lon": 65.12376
  },
  {
    "id": "1429434",
    "name": "B\u0101z\u0101rak",
    "country": "Afghanistan",
    "lat": 35.31292,
    "lon": 69.51519
  },
  {
    "id": "1469706",
    "name": "Markaz-e Woluswal\u012b-ye \u0100ch\u012bn",
    "country": "Afghanistan",
    "lat": 34.12583,
    "lon": 70.70778
  },
  {
    "id": "3576022",
    "name": "Saint John\u2019s",
    "country": "Antigua and Barbuda",
    "lat": 17.11717,
    "lon": -61.84573
  },
  {
    "id": "3573374",
    "name": "The Valley",
    "country": "Anguilla",
    "lat": 18.21704,
    "lon": -63.05783
  },
  {
    "id": "363243",
    "name": "Sarand\u00eb",
    "country": "Albania",
    "lat": 39.87556,
    "lon": 20.00528
  },
  {
    "id": "782661",
    "name": "Kuk\u00ebs",
    "country": "Albania",
    "lat": 42.07694,
    "lon": 20.42194
  },
  {
    "id": "782756",
    "name": "Kor\u00e7\u00eb",
    "country": "Albania",
    "lat": 40.61861,
    "lon": 20.78083
  },
  {
    "id": "783148",
    "name": "Gjirokast\u00ebr",
    "country": "Albania",
    "lat": 40.07583,
    "lon": 20.13889
  },
  {
    "id": "783263",
    "name": "Elbasan",
    "country": "Albania",
    "lat": 41.1125,
    "lon": 20.08222
  },
  {
    "id": "783493",
    "name": "Burrel",
    "country": "Albania",
    "lat": 41.61028,
    "lon": 20.00889
  },
  {
    "id": "3183719",
    "name": "Vlor\u00eb",
    "country": "Albania",
    "lat": 40.46667,
    "lon": 19.48972
  },
  {
    "id": "3183875",
    "name": "Tirana",
    "country": "Albania",
    "lat": 41.3275,
    "lon": 19.81889
  },
  {
    "id": "3184081",
    "name": "Shkod\u00ebr",
    "country": "Albania",
    "lat": 42.06828,
    "lon": 19.51258
  },
  {
    "id": "3184517",
    "name": "Patos Fshat",
    "country": "Albania",
    "lat": 40.64278,
    "lon": 19.65083
  },
  {
    "id": "3184862",
    "name": "Lushnj\u00eb",
    "country": "Albania",
    "lat": 40.94194,
    "lon": 19.705
  },
  {
    "id": "3184935",
    "name": "Lezh\u00eb",
    "country": "Albania",
    "lat": 41.78361,
    "lon": 19.64361
  },
  {
    "id": "3185012",
    "name": "La\u00e7",
    "country": "Albania",
    "lat": 41.63556,
    "lon": 19.71306
  },
  {
    "id": "3185060",
    "name": "Ku\u00e7ov\u00eb",
    "country": "Albania",
    "lat": 40.80028,
    "lon": 19.91667
  },
  {
    "id": "3185082",
    "name": "Kruj\u00eb",
    "country": "Albania",
    "lat": 41.50917,
    "lon": 19.79278
  },
  {
    "id": "3185211",
    "name": "Kavaj\u00eb",
    "country": "Albania",
    "lat": 41.18556,
    "lon": 19.55694
  },
  {
    "id": "3185670",
    "name": "Fier-\u00c7if\u00e7i",
    "country": "Albania",
    "lat": 40.71667,
    "lon": 19.56667
  },
  {
    "id": "3185672",
    "name": "Fier",
    "country": "Albania",
    "lat": 40.72389,
    "lon": 19.55611
  },
  {
    "id": "3185728",
    "name": "Durr\u00ebs",
    "country": "Albania",
    "lat": 41.32306,
    "lon": 19.44139
  },
  {
    "id": "3186084",
    "name": "Berat",
    "country": "Albania",
    "lat": 40.70583,
    "lon": 19.95222
  },
  {
    "id": "174875",
    "name": "Kapan",
    "country": "Armenia",
    "lat": 39.20755,
    "lon": 46.40576
  },
  {
    "id": "174895",
    "name": "Goris",
    "country": "Armenia",
    "lat": 39.51111,
    "lon": 46.34168
  },
  {
    "id": "174972",
    "name": "Hats\u2019avan",
    "country": "Armenia",
    "lat": 39.46405,
    "lon": 45.97047
  },
  {
    "id": "174979",
    "name": "Artashat",
    "country": "Armenia",
    "lat": 39.96144,
    "lon": 44.54447
  },
  {
    "id": "174991",
    "name": "Ararat",
    "country": "Armenia",
    "lat": 39.83069,
    "lon": 44.70569
  },
  {
    "id": "616052",
    "name": "Yerevan",
    "country": "Armenia",
    "lat": 40.18111,
    "lon": 44.51361
  },
  {
    "id": "616062",
    "name": "Ejmiatsin",
    "country": "Armenia",
    "lat": 40.16557,
    "lon": 44.29462
  },
  {
    "id": "616194",
    "name": "Step\u2019anavan",
    "country": "Armenia",
    "lat": 41.00995,
    "lon": 44.38531
  },
  {
    "id": "616199",
    "name": "Spitak",
    "country": "Armenia",
    "lat": 40.83221,
    "lon": 44.26731
  },
  {
    "id": "616250",
    "name": "Sevan",
    "country": "Armenia",
    "lat": 40.5473,
    "lon": 44.94171
  },
  {
    "id": "616435",
    "name": "Masis",
    "country": "Armenia",
    "lat": 40.06542,
    "lon": 44.41618
  },
  {
    "id": "616530",
    "name": "Vanadzor",
    "country": "Armenia",
    "lat": 40.80456,
    "lon": 44.4939
  },
  {
    "id": "616599",
    "name": "Gavarr",
    "country": "Armenia",
    "lat": 40.35398,
    "lon": 45.12386
  },
  {
    "id": "616629",
    "name": "Hrazdan",
    "country": "Armenia",
    "lat": 40.49748,
    "lon": 44.7662
  },
  {
    "id": "616631",
    "name": "Armavir",
    "country": "Armenia",
    "lat": 40.15446,
    "lon": 44.03815
  },
  {
    "id": "616635",
    "name": "Gyumri",
    "country": "Armenia",
    "lat": 40.7942,
    "lon": 43.84528
  },
  {
    "id": "616877",
    "name": "Ashtarak",
    "country": "Armenia",
    "lat": 40.2991,
    "lon": 44.36204
  },
  {
    "id": "617026",
    "name": "Abovyan",
    "country": "Armenia",
    "lat": 40.27368,
    "lon": 44.63348
  },
  {
    "id": "145531",
    "name": "Saurimo",
    "country": "Angola",
    "lat": -9.66078,
    "lon": 20.39155
  },
  {
    "id": "145724",
    "name": "Lucapa",
    "country": "Angola",
    "lat": -8.41915,
    "lon": 20.74466
  },
  {
    "id": "876177",
    "name": "Luau",
    "country": "Angola",
    "lat": -10.70727,
    "lon": 22.22466
  },
  {
    "id": "2236568",
    "name": "U\u00edge",
    "country": "Angola",
    "lat": -7.60874,
    "lon": 15.06131
  },
  {
    "id": "2236967",
    "name": "Soio",
    "country": "Angola",
    "lat": -6.1349,
    "lon": 12.36894
  },
  {
    "id": "2239001",
    "name": "Nzeto",
    "country": "Angola",
    "lat": -7.23116,
    "lon": 12.8666
  },
  {
    "id": "2239076",
    "name": "N\u2019dalatando",
    "country": "Angola",
    "lat": -9.29782,
    "lon": 14.91162
  },
  {
    "id": "2239520",
    "name": "Mbanza Congo",
    "country": "Angola",
    "lat": -6.26703,
    "lon": 14.2401
  },
  {
    "id": "2239862",
    "name": "Malanje",
    "country": "Angola",
    "lat": -9.54015,
    "lon": 16.34096
  },
  {
    "id": "2240449",
    "name": "Luanda",
    "country": "Angola",
    "lat": -8.83682,
    "lon": 13.23432
  },
  {
    "id": "2242001",
    "name": "Caxito",
    "country": "Angola",
    "lat": -8.57848,
    "lon": 13.66425
  },
  {
    "id": "2243271",
    "name": "Cabinda",
    "country": "Angola",
    "lat": -5.55,
    "lon": 12.2
  },
  {
    "id": "3346015",
    "name": "Sumbe",
    "country": "Angola",
    "lat": -11.20605,
    "lon": 13.84371
  },
  {
    "id": "3347019",
    "name": "Namibe",
    "country": "Angola",
    "lat": -15.19611,
    "lon": 12.15222
  },
  {
    "id": "3347353",
    "name": "Menongue",
    "country": "Angola",
    "lat": -14.6585,
    "lon": 17.69099
  },
  {
    "id": "3347719",
    "name": "Luena",
    "country": "Angola",
    "lat": -11.78333,
    "lon": 19.91667
  },
  {
    "id": "3347762",
    "name": "Lubango",
    "country": "Angola",
    "lat": -14.91717,
    "lon": 13.4925
  },
  {
    "id": "3347853",
    "name": "Longonjo",
    "country": "Angola",
    "lat": -12.90667,
    "lon": 15.25333
  },
  {
    "id": "3347939",
    "name": "Lobito",
    "country": "Angola",
    "lat": -12.3644,
    "lon": 13.53601
  },
  {
    "id": "3348078",
    "name": "Cuito",
    "country": "Angola",
    "lat": -12.38333,
    "lon": 16.93333
  },
  {
    "id": "3348313",
    "name": "Huambo",
    "country": "Angola",
    "lat": -12.77611,
    "lon": 15.73917
  },
  {
    "id": "3350246",
    "name": "Catumbela",
    "country": "Angola",
    "lat": -12.43002,
    "lon": 13.54677
  },
  {
    "id": "3350372",
    "name": "Catabola",
    "country": "Angola",
    "lat": -12.15,
    "lon": 17.28333
  },
  {
    "id": "3351014",
    "name": "Camacupa",
    "country": "Angola",
    "lat": -12.01667,
    "lon": 17.48333
  },
  {
    "id": "3351024",
    "name": "Caluquembe",
    "country": "Angola",
    "lat": -13.78333,
    "lon": 14.68333
  },
  {
    "id": "3351500",
    "name": "Ca\u00e1la",
    "country": "Angola",
    "lat": -12.8525,
    "lon": 15.56056
  },
  {
    "id": "3351663",
    "name": "Benguela",
    "country": "Angola",
    "lat": -12.57626,
    "lon": 13.40547
  },
  {
    "id": "3427213",
    "name": "Z\u00e1rate",
    "country": "Argentina",
    "lat": -34.09814,
    "lon": -59.02858
  },
  {
    "id": "3427388",
    "name": "Villa Ocampo",
    "country": "Argentina",
    "lat": -28.48752,
    "lon": -59.35515
  },
  {
    "id": "3427408",
    "name": "Villa Lugano",
    "country": "Argentina",
    "lat": -34.67907,
    "lon": -58.47263
  },
  {
    "id": "3427428",
    "name": "Villaguay",
    "country": "Argentina",
    "lat": -31.8653,
    "lon": -59.02689
  },
  {
    "id": "3427431",
    "name": "Villa Gesell",
    "country": "Argentina",
    "lat": -37.26394,
    "lon": -56.97304
  },
  {
    "id": "3427761",
    "name": "Tigre",
    "country": "Argentina",
    "lat": -34.42603,
    "lon": -58.57962
  },
  {
    "id": "3427833",
    "name": "Tandil",
    "country": "Argentina",
    "lat": -37.32167,
    "lon": -59.13316
  },
  {
    "id": "3428068",
    "name": "San Vicente",
    "country": "Argentina",
    "lat": -26.61667,
    "lon": -54.13333
  },
  {
    "id": "3428071",
    "name": "Santo Tom\u00e9",
    "country": "Argentina",
    "lat": -28.54939,
    "lon": -56.04077
  },
  {
    "id": "3428359",
    "name": "Santa Elena",
    "country": "Argentina",
    "lat": -30.94768,
    "lon": -59.78696
  },
  {
    "id": "3428577",
    "name": "San Pedro",
    "country": "Argentina",
    "lat": -26.62207,
    "lon": -54.10842
  },
  {
    "id": "3428708",
    "name": "San Luis del Palmar",
    "country": "Argentina",
    "lat": -27.5079,
    "lon": -58.55454
  },
  {
    "id": "3428759",
    "name": "San Lorenzo",
    "country": "Argentina",
    "lat": -28.13306,
    "lon": -58.76733
  },
  {
    "id": "3428975",
    "name": "San Javier",
    "country": "Argentina",
    "lat": -30.57781,
    "lon": -59.9317
  },
  {
    "id": "3428992",
    "name": "San Isidro",
    "country": "Argentina",
    "lat": -34.4721,
    "lon": -58.52708
  },
  {
    "id": "3429403",
    "name": "Saladas",
    "country": "Argentina",
    "lat": -28.25384,
    "lon": -58.62591
  },
  {
    "id": "3429576",
    "name": "Retiro",
    "country": "Argentina",
    "lat": -34.58333,
    "lon": -58.38333
  },
  {
    "id": "3429577",
    "name": "Resistencia",
    "country": "Argentina",
    "lat": -27.46056,
    "lon": -58.98389
  },
  {
    "id": "3429594",
    "name": "Reconquista",
    "country": "Argentina",
    "lat": -29.15,
    "lon": -59.65
  },
  {
    "id": "3429652",
    "name": "Quilmes",
    "country": "Argentina",
    "lat": -34.72904,
    "lon": -58.26374
  },
  {
    "id": "3429732",
    "name": "Puerto Rico",
    "country": "Argentina",
    "lat": -26.79598,
    "lon": -55.02402
  },
  {
    "id": "3429777",
    "name": "Puerto Iguaz\u00fa",
    "country": "Argentina",
    "lat": -25.59912,
    "lon": -54.57355
  },
  {
    "id": "3429786",
    "name": "Puerto Esperanza",
    "country": "Argentina",
    "lat": -26.01517,
    "lon": -54.67306
  },
  {
    "id": "3429790",
    "name": "Puerto Eldorado",
    "country": "Argentina",
    "lat": -26.40843,
    "lon": -54.69463
  },
  {
    "id": "3429886",
    "name": "Posadas",
    "country": "Argentina",
    "lat": -27.36708,
    "lon": -55.89608
  },
  {
    "id": "3429902",
    "name": "Pontevedra",
    "country": "Argentina",
    "lat": -34.74785,
    "lon": -58.70072
  },
  {
    "id": "3429949",
    "name": "Piran\u00e9",
    "country": "Argentina",
    "lat": -25.73239,
    "lon": -59.10879
  },
  {
    "id": "3430104",
    "name": "Paso de los Libres",
    "country": "Argentina",
    "lat": -29.71251,
    "lon": -57.08771
  },
  {
    "id": "3430340",
    "name": "Ober\u00e1",
    "country": "Argentina",
    "lat": -27.48706,
    "lon": -55.11994
  },
  {
    "id": "3430443",
    "name": "Necochea",
    "country": "Argentina",
    "lat": -38.5545,
    "lon": -58.73961
  },
  {
    "id": "3430545",
    "name": "Mor\u00f3n",
    "country": "Argentina",
    "lat": -34.6509,
    "lon": -58.61956
  },
  {
    "id": "3430598",
    "name": "Monte Caseros",
    "country": "Argentina",
    "lat": -30.25359,
    "lon": -57.63626
  },
  {
    "id": "3430601",
    "name": "Montecarlo",
    "country": "Argentina",
    "lat": -26.5662,
    "lon": -54.757
  },
  {
    "id": "3430708",
    "name": "Mercedes",
    "country": "Argentina",
    "lat": -34.65145,
    "lon": -59.43068
  },
  {
    "id": "3430709",
    "name": "Mercedes",
    "country": "Argentina",
    "lat": -29.18416,
    "lon": -58.07519
  },
  {
    "id": "3430863",
    "name": "Mar del Plata",
    "country": "Argentina",
    "lat": -38.00228,
    "lon": -57.55754
  },
  {
    "id": "3430988",
    "name": "Luj\u00e1n",
    "country": "Argentina",
    "lat": -34.57028,
    "lon": -59.105
  },
  {
    "id": "3432043",
    "name": "La Plata",
    "country": "Argentina",
    "lat": -34.92145,
    "lon": -57.95453
  },
  {
    "id": "3432079",
    "name": "La Paz",
    "country": "Argentina",
    "lat": -30.74485,
    "lon": -59.64566
  },
  {
    "id": "3433349",
    "name": "Jard\u00edn Am\u00e9rica",
    "country": "Argentina",
    "lat": -27.04346,
    "lon": -55.22698
  },
  {
    "id": "3433658",
    "name": "Gualeguaych\u00fa",
    "country": "Argentina",
    "lat": -33.00937,
    "lon": -58.51722
  },
  {
    "id": "3433663",
    "name": "Gualeguay",
    "country": "Argentina",
    "lat": -33.14156,
    "lon": -59.30966
  },
  {
    "id": "3433715",
    "name": "Goya",
    "country": "Argentina",
    "lat": -29.14395,
    "lon": -59.2651
  },
  {
    "id": "3433753",
    "name": "Gobernador Ingeniero Valent\u00edn Virasoro",
    "country": "Argentina",
    "lat": -28.05,
    "lon": -56.03333
  },
  {
    "id": "3433803",
    "name": "General Jos\u00e9 de San Mart\u00edn",
    "country": "Argentina",
    "lat": -26.53743,
    "lon": -59.34158
  },
  {
    "id": "3433836",
    "name": "Garup\u00e1",
    "country": "Argentina",
    "lat": -27.48171,
    "lon": -55.82921
  },
  {
    "id": "3433899",
    "name": "Formosa",
    "country": "Argentina",
    "lat": -26.17753,
    "lon": -58.17814
  },
  {
    "id": "3433901",
    "name": "Fontana",
    "country": "Argentina",
    "lat": -27.41813,
    "lon": -59.02392
  },
  {
    "id": "3433956",
    "name": "Federal",
    "country": "Argentina",
    "lat": -30.95465,
    "lon": -58.78326
  },
  {
    "id": "3434095",
    "name": "Esquina",
    "country": "Argentina",
    "lat": -30.01444,
    "lon": -59.52719
  },
  {
    "id": "3434291",
    "name": "El Soberbio",
    "country": "Argentina",
    "lat": -27.29847,
    "lon": -54.19877
  },
  {
    "id": "3435038",
    "name": "Dolores",
    "country": "Argentina",
    "lat": -36.31321,
    "lon": -57.67918
  },
  {
    "id": "3435103",
    "name": "Curuz\u00fa Cuati\u00e1",
    "country": "Argentina",
    "lat": -29.79171,
    "lon": -58.0546
  },
  {
    "id": "3435217",
    "name": "Corrientes",
    "country": "Argentina",
    "lat": -27.4806,
    "lon": -58.8341
  },
  {
    "id": "3435261",
    "name": "Concordia",
    "country": "Argentina",
    "lat": -31.39296,
    "lon": -58.02089
  },
  {
    "id": "3435264",
    "name": "Concepci\u00f3n del Uruguay",
    "country": "Argentina",
    "lat": -32.48249,
    "lon": -58.23722
  },
  {
    "id": "3435356",
    "name": "Colegiales",
    "country": "Argentina",
    "lat": -34.57365,
    "lon": -58.44924
  },
  {
    "id": "3435486",
    "name": "Chajar\u00ed",
    "country": "Argentina",
    "lat": -30.75048,
    "lon": -57.97962
  },
  {
    "id": "3435810",
    "name": "Campana",
    "country": "Argentina",
    "lat": -34.16874,
    "lon": -58.95914
  },
  {
    "id": "3435910",
    "name": "Buenos Aires",
    "country": "Argentina",
    "lat": -34.61315,
    "lon": -58.37723
  },
  {
    "id": "3436124",
    "name": "Barranqueras",
    "country": "Argentina",
    "lat": -27.48132,
    "lon": -58.93925
  },
  {
    "id": "3436199",
    "name": "Azul",
    "country": "Argentina",
    "lat": -36.77698,
    "lon": -59.85854
  },
  {
    "id": "3436230",
    "name": "Avellaneda",
    "country": "Argentina",
    "lat": -29.11761,
    "lon": -59.65834
  },
  {
    "id": "3436287",
    "name": "Arist\u00f3bulo del Valle",
    "country": "Argentina",
    "lat": -27.09625,
    "lon": -54.89626
  },
  {
    "id": "3832132",
    "name": "Zapala",
    "country": "Argentina",
    "lat": -38.89916,
    "lon": -70.05442
  },
  {
    "id": "3832260",
    "name": "Yerba Buena",
    "country": "Argentina",
    "lat": -26.81667,
    "lon": -65.31667
  },
  {
    "id": "3832647",
    "name": "Villa Regina",
    "country": "Argentina",
    "lat": -39.1,
    "lon": -67.06667
  },
  {
    "id": "3832653",
    "name": "Villa Paula de Sarmiento",
    "country": "Argentina",
    "lat": -31.4933,
    "lon": -68.53838
  },
  {
    "id": "3832662",
    "name": "Villa Nueva",
    "country": "Argentina",
    "lat": -32.43293,
    "lon": -63.24763
  },
  {
    "id": "3832694",
    "name": "Villa Mar\u00eda",
    "country": "Argentina",
    "lat": -32.40751,
    "lon": -63.24016
  },
  {
    "id": "3832756",
    "name": "Villa Dolores",
    "country": "Argentina",
    "lat": -31.94585,
    "lon": -65.18958
  },
  {
    "id": "3832778",
    "name": "Villa Constituci\u00f3n",
    "country": "Argentina",
    "lat": -33.22778,
    "lon": -60.3297
  },
  {
    "id": "3832791",
    "name": "Villa Carlos Paz",
    "country": "Argentina",
    "lat": -31.42414,
    "lon": -64.49778
  },
  {
    "id": "3832811",
    "name": "Villa \u00c1ngela",
    "country": "Argentina",
    "lat": -27.57383,
    "lon": -60.71526
  },
  {
    "id": "3832815",
    "name": "Villa Allende",
    "country": "Argentina",
    "lat": -31.29458,
    "lon": -64.29538
  },
  {
    "id": "3832899",
    "name": "Viedma",
    "country": "Argentina",
    "lat": -40.81345,
    "lon": -62.99668
  },
  {
    "id": "3832934",
    "name": "Victoria",
    "country": "Argentina",
    "lat": -32.61841,
    "lon": -60.15478
  },
  {
    "id": "3833027",
    "name": "Vera",
    "country": "Argentina",
    "lat": -29.4593,
    "lon": -60.21261
  },
  {
    "id": "3833062",
    "name": "Venado Tuerto",
    "country": "Argentina",
    "lat": -33.74556,
    "lon": -61.96885
  },
  {
    "id": "3833112",
    "name": "Veinticinco de Mayo",
    "country": "Argentina",
    "lat": -35.4323,
    "lon": -60.17271
  },
  {
    "id": "3833367",
    "name": "Ushuaia",
    "country": "Argentina",
    "lat": -54.8,
    "lon": -68.3
  },
  {
    "id": "3833412",
    "name": "Unquillo",
    "country": "Argentina",
    "lat": -31.23073,
    "lon": -64.31615
  },
  {
    "id": "3833794",
    "name": "Tres Isletas",
    "country": "Argentina",
    "lat": -26.34067,
    "lon": -60.43207
  },
  {
    "id": "3833859",
    "name": "Tres Arroyos",
    "country": "Argentina",
    "lat": -38.37394,
    "lon": -60.27978
  },
  {
    "id": "3833883",
    "name": "Trelew",
    "country": "Argentina",
    "lat": -43.24895,
    "lon": -65.30505
  },
  {
    "id": "3834502",
    "name": "Termas de R\u00edo Hondo",
    "country": "Argentina",
    "lat": -27.49362,
    "lon": -64.85972
  },
  {
    "id": "3834601",
    "name": "Tartagal",
    "country": "Argentina",
    "lat": -22.51637,
    "lon": -63.80131
  },
  {
    "id": "3834813",
    "name": "Taf\u00ed Viejo",
    "country": "Argentina",
    "lat": -26.73201,
    "lon": -65.25921
  },
  {
    "id": "3834971",
    "name": "Sunchales",
    "country": "Argentina",
    "lat": -30.94404,
    "lon": -61.56148
  },
  {
    "id": "3835793",
    "name": "Santo Tom\u00e9",
    "country": "Argentina",
    "lat": -31.66274,
    "lon": -60.7653
  },
  {
    "id": "3835869",
    "name": "Santiago del Estero",
    "country": "Argentina",
    "lat": -27.79511,
    "lon": -64.26149
  },
  {
    "id": "3835994",
    "name": "Santa Rosa",
    "country": "Argentina",
    "lat": -36.61667,
    "lon": -64.28333
  },
  {
    "id": "3836194",
    "name": "Santa Luc\u00eda",
    "country": "Argentina",
    "lat": -31.53987,
    "lon": -68.49503
  },
  {
    "id": "3836277",
    "name": "Santa Fe de la Vera Cruz",
    "country": "Argentina",
    "lat": -31.63333,
    "lon": -60.7
  },
  {
    "id": "3836564",
    "name": "San Salvador de Jujuy",
    "country": "Argentina",
    "lat": -24.19457,
    "lon": -65.29712
  },
  {
    "id": "3836620",
    "name": "San Ram\u00f3n de la Nueva Or\u00e1n",
    "country": "Argentina",
    "lat": -23.13705,
    "lon": -64.32426
  },
  {
    "id": "3836669",
    "name": "San Rafael",
    "country": "Argentina",
    "lat": -34.61772,
    "lon": -68.33007
  },
  {
    "id": "3836772",
    "name": "San Pedro",
    "country": "Argentina",
    "lat": -24.23127,
    "lon": -64.86614
  },
  {
    "id": "3836846",
    "name": "San Nicol\u00e1s de los Arroyos",
    "country": "Argentina",
    "lat": -33.33578,
    "lon": -60.22523
  },
  {
    "id": "3836873",
    "name": "San Miguel de Tucum\u00e1n",
    "country": "Argentina",
    "lat": -26.82414,
    "lon": -65.2226
  },
  {
    "id": "3836951",
    "name": "San Mart\u00edn de los Andes",
    "country": "Argentina",
    "lat": -40.15789,
    "lon": -71.35337
  },
  {
    "id": "3836992",
    "name": "San Mart\u00edn",
    "country": "Argentina",
    "lat": -33.08103,
    "lon": -68.46814
  },
  {
    "id": "3837056",
    "name": "San Luis",
    "country": "Argentina",
    "lat": -33.29501,
    "lon": -66.33563
  },
  {
    "id": "3837124",
    "name": "San Justo",
    "country": "Argentina",
    "lat": -30.78913,
    "lon": -60.59189
  },
  {
    "id": "3837213",
    "name": "San Juan",
    "country": "Argentina",
    "lat": -31.5375,
    "lon": -68.53639
  },
  {
    "id": "3837240",
    "name": "San Jos\u00e9 de J\u00e1chal",
    "country": "Argentina",
    "lat": -30.24057,
    "lon": -68.74693
  },
  {
    "id": "3837441",
    "name": "San Jorge",
    "country": "Argentina",
    "lat": -31.89618,
    "lon": -61.85984
  },
  {
    "id": "3837675",
    "name": "San Francisco",
    "country": "Argentina",
    "lat": -31.42797,
    "lon": -62.08266
  },
  {
    "id": "3837702",
    "name": "San Fernando del Valle de Catamarca",
    "country": "Argentina",
    "lat": -28.46957,
    "lon": -65.78524
  },
  {
    "id": "3838233",
    "name": "Salta",
    "country": "Argentina",
    "lat": -24.7859,
    "lon": -65.41166
  },
  {
    "id": "3838506",
    "name": "Rufino",
    "country": "Argentina",
    "lat": -34.26827,
    "lon": -62.71262
  },
  {
    "id": "3838583",
    "name": "Rosario",
    "country": "Argentina",
    "lat": -32.94682,
    "lon": -60.63932
  },
  {
    "id": "3838793",
    "name": "R\u00edo Tercero",
    "country": "Argentina",
    "lat": -32.17301,
    "lon": -64.11405
  },
  {
    "id": "3838797",
    "name": "R\u00edo Segundo",
    "country": "Argentina",
    "lat": -31.6526,
    "lon": -63.9099
  },
  {
    "id": "3838859",
    "name": "R\u00edo Gallegos",
    "country": "Argentina",
    "lat": -51.62261,
    "lon": -69.21813
  },
  {
    "id": "3838874",
    "name": "R\u00edo Cuarto",
    "country": "Argentina",
    "lat": -33.13067,
    "lon": -64.34992
  },
  {
    "id": "3838902",
    "name": "R\u00edo Ceballos",
    "country": "Argentina",
    "lat": -31.16486,
    "lon": -64.32241
  },
  {
    "id": "3839307",
    "name": "Rawson",
    "country": "Argentina",
    "lat": -43.30016,
    "lon": -65.10228
  },
  {
    "id": "3839479",
    "name": "Rafaela",
    "country": "Argentina",
    "lat": -31.25033,
    "lon": -61.4867
  },
  {
    "id": "3839490",
    "name": "Quitilipi",
    "country": "Argentina",
    "lat": -26.86913,
    "lon": -60.21683
  },
  {
    "id": "3839982",
    "name": "Punta Alta",
    "country": "Argentina",
    "lat": -38.87588,
    "lon": -62.07359
  },
  {
    "id": "3840092",
    "name": "Puerto Madryn",
    "country": "Argentina",
    "lat": -42.7692,
    "lon": -65.03851
  },
  {
    "id": "3840300",
    "name": "Presidencia Roque S\u00e1enz Pe\u00f1a",
    "country": "Argentina",
    "lat": -26.78522,
    "lon": -60.43876
  },
  {
    "id": "3840860",
    "name": "Pocito",
    "country": "Argentina",
    "lat": -31.68333,
    "lon": -68.58333
  },
  {
    "id": "3840885",
    "name": "Plottier",
    "country": "Argentina",
    "lat": -38.96667,
    "lon": -68.23333
  },
  {
    "id": "3841490",
    "name": "Pergamino",
    "country": "Argentina",
    "lat": -33.88995,
    "lon": -60.57357
  },
  {
    "id": "3841500",
    "name": "P\u00e9rez",
    "country": "Argentina",
    "lat": -32.99835,
    "lon": -60.76791
  },
  {
    "id": "3841956",
    "name": "Paran\u00e1",
    "country": "Argentina",
    "lat": -31.73197,
    "lon": -60.5238
  },
  {
    "id": "3842190",
    "name": "Palpal\u00e1",
    "country": "Argentina",
    "lat": -24.25647,
    "lon": -65.21163
  },
  {
    "id": "3842670",
    "name": "Olavarr\u00eda",
    "country": "Argentina",
    "lat": -36.89272,
    "lon": -60.32254
  },
  {
    "id": "3842881",
    "name": "Nueve de Julio",
    "country": "Argentina",
    "lat": -35.44437,
    "lon": -60.88313
  },
  {
    "id": "3843123",
    "name": "Neuqu\u00e9n",
    "country": "Argentina",
    "lat": -38.95161,
    "lon": -68.0591
  },
  {
    "id": "3843619",
    "name": "Morteros",
    "country": "Argentina",
    "lat": -30.71164,
    "lon": -61.99862
  },
  {
    "id": "3843803",
    "name": "Monteros",
    "country": "Argentina",
    "lat": -27.16741,
    "lon": -65.49832
  },
  {
    "id": "3844421",
    "name": "Mendoza",
    "country": "Argentina",
    "lat": -32.89084,
    "lon": -68.82717
  },
  {
    "id": "3844899",
    "name": "Marcos Ju\u00e1rez",
    "country": "Argentina",
    "lat": -32.6978,
    "lon": -62.10672
  },
  {
    "id": "3845330",
    "name": "Machagai",
    "country": "Argentina",
    "lat": -26.92614,
    "lon": -60.04955
  },
  {
    "id": "3014383",
    "name": "Gu\u00e9ret",
    "country": "France",
    "lat": 46.16667,
    "lon": 1.86667
  },
  {
    "id": "3846864",
    "name": "Lincoln",
    "country": "Argentina",
    "lat": -34.86649,
    "lon": -61.5302
  },
  {
    "id": "3846915",
    "name": "Libertador General San Mart\u00edn",
    "country": "Argentina",
    "lat": -23.80644,
    "lon": -64.78757
  },
  {
    "id": "3848687",
    "name": "Las Bre\u00f1as",
    "country": "Argentina",
    "lat": -27.08966,
    "lon": -61.08161
  },
  {
    "id": "3848950",
    "name": "La Rioja",
    "country": "Argentina",
    "lat": -29.41105,
    "lon": -66.85067
  },
  {
    "id": "3851331",
    "name": "La Falda",
    "country": "Argentina",
    "lat": -31.08841,
    "lon": -64.48987
  },
  {
    "id": "3852374",
    "name": "La Calera",
    "country": "Argentina",
    "lat": -31.34377,
    "lon": -64.33529
  },
  {
    "id": "3852468",
    "name": "Laboulaye",
    "country": "Argentina",
    "lat": -34.12662,
    "lon": -63.39119
  },
  {
    "id": "3853354",
    "name": "Jun\u00edn",
    "country": "Argentina",
    "lat": -34.58382,
    "lon": -60.94332
  },
  {
    "id": "3853491",
    "name": "Joaqu\u00edn V. Gonz\u00e1lez",
    "country": "Argentina",
    "lat": -25.08333,
    "lon": -64.18333
  },
  {
    "id": "3853510",
    "name": "Jes\u00fas Mar\u00eda",
    "country": "Argentina",
    "lat": -30.98153,
    "lon": -64.09424
  },
  {
    "id": "3854895",
    "name": "Granadero Baigorria",
    "country": "Argentina",
    "lat": -32.85683,
    "lon": -60.71754
  },
  {
    "id": "3854985",
    "name": "Gobernador G\u00e1lvez",
    "country": "Argentina",
    "lat": -33.03016,
    "lon": -60.64045
  },
  {
    "id": "3855041",
    "name": "General Villegas",
    "country": "Argentina",
    "lat": -35.03285,
    "lon": -63.01252
  },
  {
    "id": "3855065",
    "name": "General Roca",
    "country": "Argentina",
    "lat": -39.03333,
    "lon": -67.58333
  },
  {
    "id": "3855074",
    "name": "General Pinedo",
    "country": "Argentina",
    "lat": -27.31667,
    "lon": -61.28333
  },
  {
    "id": "3855075",
    "name": "General Pico",
    "country": "Argentina",
    "lat": -35.65662,
    "lon": -63.75682
  },
  {
    "id": "3855116",
    "name": "General Enrique Mosconi",
    "country": "Argentina",
    "lat": -22.59588,
    "lon": -63.81255
  },
  {
    "id": "3855244",
    "name": "G\u00e1lvez",
    "country": "Argentina",
    "lat": -32.02927,
    "lon": -61.22103
  },
  {
    "id": "3855554",
    "name": "Firmat",
    "country": "Argentina",
    "lat": -33.45937,
    "lon": -61.4832
  },
  {
    "id": "3855666",
    "name": "Famaill\u00e1",
    "country": "Argentina",
    "lat": -27.05413,
    "lon": -65.40329
  },
  {
    "id": "3855974",
    "name": "Esquel",
    "country": "Argentina",
    "lat": -42.91147,
    "lon": -71.31947
  },
  {
    "id": "3856022",
    "name": "Esperanza",
    "country": "Argentina",
    "lat": -31.4488,
    "lon": -60.93173
  },
  {
    "id": "3856231",
    "name": "Embarcaci\u00f3n",
    "country": "Argentina",
    "lat": -23.21003,
    "lon": -64.09965
  },
  {
    "id": "3856235",
    "name": "Embalse",
    "country": "Argentina",
    "lat": -32.18,
    "lon": -64.41809
  },
  {
    "id": "3858765",
    "name": "El Bols\u00f3n",
    "country": "Argentina",
    "lat": -41.96051,
    "lon": -71.53336
  },
  {
    "id": "3859384",
    "name": "Diamante",
    "country": "Argentina",
    "lat": -32.06641,
    "lon": -60.63837
  },
  {
    "id": "3859512",
    "name": "De\u00e1n Funes",
    "country": "Argentina",
    "lat": -30.42036,
    "lon": -64.34984
  },
  {
    "id": "3859552",
    "name": "Cutral-C\u00f3",
    "country": "Argentina",
    "lat": -38.93424,
    "lon": -69.23052
  },
  {
    "id": "3859828",
    "name": "Cruz del Eje",
    "country": "Argentina",
    "lat": -30.72644,
    "lon": -64.80387
  },
  {
    "id": "3859904",
    "name": "Crespo",
    "country": "Argentina",
    "lat": -32.02873,
    "lon": -60.30658
  },
  {
    "id": "3859965",
    "name": "Cosqu\u00edn",
    "country": "Argentina",
    "lat": -31.24508,
    "lon": -64.46563
  },
  {
    "id": "3860164",
    "name": "Coronel Su\u00e1rez",
    "country": "Argentina",
    "lat": -37.45467,
    "lon": -61.93343
  },
  {
    "id": "3860217",
    "name": "Coronda",
    "country": "Argentina",
    "lat": -31.97263,
    "lon": -60.91983
  },
  {
    "id": "3860259",
    "name": "C\u00f3rdoba",
    "country": "Argentina",
    "lat": -31.4135,
    "lon": -64.18105
  },
  {
    "id": "3860443",
    "name": "Comodoro Rivadavia",
    "country": "Argentina",
    "lat": -45.86413,
    "lon": -67.49656
  },
  {
    "id": "3861056",
    "name": "Cipolletti",
    "country": "Argentina",
    "lat": -38.93392,
    "lon": -67.99032
  },
  {
    "id": "3861061",
    "name": "Cinco Saltos",
    "country": "Argentina",
    "lat": -38.82225,
    "lon": -68.06293
  },
  {
    "id": "3861344",
    "name": "Chivilcoy",
    "country": "Argentina",
    "lat": -34.89566,
    "lon": -60.01667
  },
  {
    "id": "3861416",
    "name": "Chimbas",
    "country": "Argentina",
    "lat": -31.48333,
    "lon": -68.53333
  },
  {
    "id": "3861445",
    "name": "Chilecito",
    "country": "Argentina",
    "lat": -29.16195,
    "lon": -67.4974
  },
  {
    "id": "3861678",
    "name": "Charata",
    "country": "Argentina",
    "lat": -27.21438,
    "lon": -61.18795
  },
  {
    "id": "3861953",
    "name": "Chacabuco",
    "country": "Argentina",
    "lat": -34.64167,
    "lon": -60.47389
  },
  {
    "id": "3862144",
    "name": "Centenario",
    "country": "Argentina",
    "lat": -38.82955,
    "lon": -68.1318
  },
  {
    "id": "3862240",
    "name": "Caucete",
    "country": "Argentina",
    "lat": -31.65179,
    "lon": -68.28105
  },
  {
    "id": "3862254",
    "name": "Catriel",
    "country": "Argentina",
    "lat": -37.87907,
    "lon": -67.7956
  },
  {
    "id": "3862320",
    "name": "Castelli",
    "country": "Argentina",
    "lat": -25.94679,
    "lon": -60.61947
  },
  {
    "id": "3862351",
    "name": "Casilda",
    "country": "Argentina",
    "lat": -33.04417,
    "lon": -61.16806
  },
  {
    "id": "3862655",
    "name": "Carcara\u00f1\u00e1",
    "country": "Argentina",
    "lat": -32.85679,
    "lon": -61.15331
  },
  {
    "id": "3862738",
    "name": "Capit\u00e1n Berm\u00fadez",
    "country": "Argentina",
    "lat": -32.82262,
    "lon": -60.71852
  },
  {
    "id": "3862981",
    "name": "Ca\u00f1ada de G\u00f3mez",
    "country": "Argentina",
    "lat": -32.81636,
    "lon": -61.39493
  },
  {
    "id": "3863379",
    "name": "Caleta Olivia",
    "country": "Argentina",
    "lat": -46.43929,
    "lon": -67.52814
  },
  {
    "id": "3864331",
    "name": "Bell Ville",
    "country": "Argentina",
    "lat": -32.62591,
    "lon": -62.68873
  },
  {
    "id": "3864375",
    "name": "Bella Vista",
    "country": "Argentina",
    "lat": -27.03424,
    "lon": -65.30196
  },
  {
    "id": "3865086",
    "name": "Bah\u00eda Blanca",
    "country": "Argentina",
    "lat": -38.71959,
    "lon": -62.27243
  },
  {
    "id": "3865385",
    "name": "Arroyo Seco",
    "country": "Argentina",
    "lat": -33.15489,
    "lon": -60.50863
  },
  {
    "id": "3865424",
    "name": "Arroyito",
    "country": "Argentina",
    "lat": -31.42022,
    "lon": -63.05002
  },
  {
    "id": "3865840",
    "name": "A\u00f1atuya",
    "country": "Argentina",
    "lat": -28.46064,
    "lon": -62.83472
  },
  {
    "id": "3866163",
    "name": "Alta Gracia",
    "country": "Argentina",
    "lat": -31.65292,
    "lon": -64.42826
  },
  {
    "id": "3866242",
    "name": "Allen",
    "country": "Argentina",
    "lat": -38.97736,
    "lon": -67.82714
  },
  {
    "id": "3866367",
    "name": "Alderetes",
    "country": "Argentina",
    "lat": -26.81667,
    "lon": -65.13333
  },
  {
    "id": "3866425",
    "name": "Albard\u00f3n",
    "country": "Argentina",
    "lat": -31.43722,
    "lon": -68.52556
  },
  {
    "id": "3866496",
    "name": "Aguilares",
    "country": "Argentina",
    "lat": -27.4338,
    "lon": -65.61427
  },
  {
    "id": "6693230",
    "name": "Villa Santa Rita",
    "country": "Argentina",
    "lat": -34.61082,
    "lon": -58.481
  },
  {
    "id": "7116866",
    "name": "Villa Mercedes",
    "country": "Argentina",
    "lat": -33.67571,
    "lon": -65.45783
  },
  {
    "id": "7647007",
    "name": "San Carlos de Bariloche",
    "country": "Argentina",
    "lat": -41.14557,
    "lon": -71.30822
  },
  {
    "id": "10172104",
    "name": "Adrogu\u00e9",
    "country": "Argentina",
    "lat": -34.80041,
    "lon": -58.38384
  },
  {
    "id": "5881576",
    "name": "Pago Pago",
    "country": "",
    "lat": -14.27806,
    "lon": -170.7025
  },
  {
    "id": "2760910",
    "name": "Wolfsberg",
    "country": "Austria",
    "lat": 46.84056,
    "lon": 14.84417
  },
  {
    "id": "2761353",
    "name": "Wiener Neustadt",
    "country": "Austria",
    "lat": 47.8,
    "lon": 16.25
  },
  {
    "id": "2761369",
    "name": "Vienna",
    "country": "Austria",
    "lat": 48.20849,
    "lon": 16.37208
  },
  {
    "id": "2761524",
    "name": "Wels",
    "country": "Austria",
    "lat": 48.16667,
    "lon": 14.03333
  },
  {
    "id": "2761669",
    "name": "Weinzierl bei Krems",
    "country": "Austria",
    "lat": 48.4,
    "lon": 15.6
  },
  {
    "id": "2762372",
    "name": "Villach",
    "country": "Austria",
    "lat": 46.61028,
    "lon": 13.85583
  },
  {
    "id": "2763423",
    "name": "Traun",
    "country": "Austria",
    "lat": 48.22656,
    "lon": 14.23459
  },
  {
    "id": "2763460",
    "name": "Traiskirchen",
    "country": "Austria",
    "lat": 48.01485,
    "lon": 16.29324
  },
  {
    "id": "2763795",
    "name": "Ternitz",
    "country": "Austria",
    "lat": 47.71565,
    "lon": 16.03575
  },
  {
    "id": "2764359",
    "name": "Steyr",
    "country": "Austria",
    "lat": 48.04274,
    "lon": 14.42127
  },
  {
    "id": "2764786",
    "name": "Spittal an der Drau",
    "country": "Austria",
    "lat": 46.8,
    "lon": 13.5
  },
  {
    "id": "2765388",
    "name": "Schwechat",
    "country": "Austria",
    "lat": 48.13333,
    "lon": 16.46667
  },
  {
    "id": "3014392",
    "name": "Gu\u00e9rande",
    "country": "France",
    "lat": 47.32911,
    "lon": -2.42829
  },
  {
    "id": "2766429",
    "name": "Sankt P\u00f6lten",
    "country": "Austria",
    "lat": 48.2,
    "lon": 15.63333
  },
  {
    "id": "2766824",
    "name": "Salzburg",
    "country": "Austria",
    "lat": 47.79941,
    "lon": 13.04399
  },
  {
    "id": "2766922",
    "name": "Saalfelden am Steinernen Meer",
    "country": "Austria",
    "lat": 47.42681,
    "lon": 12.848
  },
  {
    "id": "2771335",
    "name": "M\u00f6dling",
    "country": "Austria",
    "lat": 48.08605,
    "lon": 16.28921
  },
  {
    "id": "2991772",
    "name": "Morlaix",
    "country": "France",
    "lat": 48.58333,
    "lon": -3.83333
  },
  {
    "id": "2772173",
    "name": "Lustenau",
    "country": "Austria",
    "lat": 47.42642,
    "lon": 9.65851
  },
  {
    "id": "2772400",
    "name": "Linz",
    "country": "Austria",
    "lat": 48.30639,
    "lon": 14.28611
  },
  {
    "id": "2772635",
    "name": "Leonding",
    "country": "Austria",
    "lat": 48.27965,
    "lon": 14.2533
  },
  {
    "id": "2772649",
    "name": "Leoben",
    "country": "Austria",
    "lat": 47.3765,
    "lon": 15.09144
  },
  {
    "id": "2773300",
    "name": "Kufstein",
    "country": "Austria",
    "lat": 47.58333,
    "lon": 12.16667
  },
  {
    "id": "2773549",
    "name": "Krems an der Donau",
    "country": "Austria",
    "lat": 48.40921,
    "lon": 15.61415
  },
  {
    "id": "2773913",
    "name": "Klosterneuburg",
    "country": "Austria",
    "lat": 48.30521,
    "lon": 16.32522
  },
  {
    "id": "2774326",
    "name": "Klagenfurt am W\u00f6rthersee",
    "country": "Austria",
    "lat": 46.62472,
    "lon": 14.30528
  },
  {
    "id": "2774773",
    "name": "Kapfenberg",
    "country": "Austria",
    "lat": 47.44458,
    "lon": 15.29331
  },
  {
    "id": "2775220",
    "name": "Innsbruck",
    "country": "Austria",
    "lat": 47.26266,
    "lon": 11.39454
  },
  {
    "id": "2776951",
    "name": "Hallein",
    "country": "Austria",
    "lat": 47.68333,
    "lon": 13.1
  },
  {
    "id": "1203891",
    "name": "Din\u0101jpur",
    "country": "Bangladesh",
    "lat": 25.62745,
    "lon": 88.63779
  },
  {
    "id": "2778067",
    "name": "Graz",
    "country": "Austria",
    "lat": 47.06667,
    "lon": 15.45
  },
  {
    "id": "2779674",
    "name": "Feldkirch",
    "country": "Austria",
    "lat": 47.23306,
    "lon": 9.6
  },
  {
    "id": "2780741",
    "name": "Dornbirn",
    "country": "Austria",
    "lat": 47.41427,
    "lon": 9.74195
  },
  {
    "id": "2781503",
    "name": "Bregenz",
    "country": "Austria",
    "lat": 47.50311,
    "lon": 9.7471
  },
  {
    "id": "2781520",
    "name": "Braunau am Inn",
    "country": "Austria",
    "lat": 48.25628,
    "lon": 13.04343
  },
  {
    "id": "2782067",
    "name": "Baden",
    "country": "Austria",
    "lat": 48.00543,
    "lon": 16.23264
  },
  {
    "id": "2782555",
    "name": "Amstetten",
    "country": "Austria",
    "lat": 48.1229,
    "lon": 14.87206
  },
  {
    "id": "3323063",
    "name": "Ansfelden",
    "country": "Austria",
    "lat": 47.965,
    "lon": 13.04944
  },
  {
    "id": "735914",
    "name": "Kater\u00edni",
    "country": "Pirai\u00f3s Nom\u00f3s",
    "lat": 40.26956,
    "lon": 22.50608
  },
  {
    "id": "148106",
    "name": "Fizuli",
    "country": "Azerbaijan",
    "lat": 39.60094,
    "lon": 47.14529
  },
  {
    "id": "148354",
    "name": "Beylagan",
    "country": "Azerbaijan",
    "lat": 39.77556,
    "lon": 47.61861
  },
  {
    "id": "2158651",
    "name": "Maroubra",
    "country": "Australia",
    "lat": -33.95,
    "lon": 151.23333
  },
  {
    "id": "2160582",
    "name": "Langwarrin",
    "country": "Australia",
    "lat": -38.16667,
    "lon": 145.16667
  },
  {
    "id": "2992616",
    "name": "Montfermeil",
    "country": "France",
    "lat": 48.8982,
    "lon": 2.57913
  },
  {
    "id": "2167949",
    "name": "Earlwood",
    "country": "Australia",
    "lat": -33.95,
    "lon": 151.1
  },
  {
    "id": "2993024",
    "name": "Montargis",
    "country": "France",
    "lat": 48.0,
    "lon": 2.75
  },
  {
    "id": "148290",
    "name": "Dzhalilabad",
    "country": "Azerbaijan",
    "lat": 39.20963,
    "lon": 48.49186
  },
  {
    "id": "3577154",
    "name": "Oranjestad",
    "country": "Aruba",
    "lat": 12.52398,
    "lon": -70.02703
  },
  {
    "id": "3577277",
    "name": "Babijn",
    "country": "Aruba",
    "lat": 12.53333,
    "lon": -69.98333
  },
  {
    "id": "3577284",
    "name": "Angochi",
    "country": "Aruba",
    "lat": 12.51667,
    "lon": -69.95
  },
  {
    "id": "146970",
    "name": "Xankandi",
    "country": "Azerbaijan",
    "lat": 39.8177,
    "lon": 46.7528
  },
  {
    "id": "147059",
    "name": "\u018fhm\u0259db\u0259yli",
    "country": "Azerbaijan",
    "lat": 39.87867,
    "lon": 48.39901
  },
  {
    "id": "147105",
    "name": "Shushi",
    "country": "Azerbaijan",
    "lat": 39.76006,
    "lon": 46.74989
  },
  {
    "id": "147271",
    "name": "Salyan",
    "country": "Azerbaijan",
    "lat": 39.59621,
    "lon": 48.98479
  },
  {
    "id": "147288",
    "name": "Saatl\u0131",
    "country": "Azerbaijan",
    "lat": 39.93214,
    "lon": 48.36892
  },
  {
    "id": "147425",
    "name": "Neft\u00e7ala",
    "country": "Azerbaijan",
    "lat": 39.3768,
    "lon": 49.247
  },
  {
    "id": "147429",
    "name": "Nakhchivan",
    "country": "Azerbaijan",
    "lat": 39.20889,
    "lon": 45.41222
  },
  {
    "id": "147622",
    "name": "Lankaran",
    "country": "Azerbaijan",
    "lat": 38.75428,
    "lon": 48.85062
  },
  {
    "id": "147982",
    "name": "Imishli",
    "country": "Azerbaijan",
    "lat": 39.87095,
    "lon": 48.05995
  },
  {
    "id": "148340",
    "name": "Pushkino",
    "country": "Azerbaijan",
    "lat": 39.45833,
    "lon": 48.545
  },
  {
    "id": "148445",
    "name": "Astara",
    "country": "Azerbaijan",
    "lat": 38.45598,
    "lon": 48.87498
  },
  {
    "id": "148565",
    "name": "\u015eirvan",
    "country": "Azerbaijan",
    "lat": 39.93778,
    "lon": 48.929
  },
  {
    "id": "148619",
    "name": "A\u011fdam",
    "country": "Azerbaijan",
    "lat": 39.99096,
    "lon": 46.92736
  },
  {
    "id": "584596",
    "name": "Zaqatala",
    "country": "Azerbaijan",
    "lat": 41.6316,
    "lon": 46.64479
  },
  {
    "id": "584614",
    "name": "Zabrat",
    "country": "Azerbaijan",
    "lat": 40.47746,
    "lon": 49.94174
  },
  {
    "id": "584649",
    "name": "Yevlakh",
    "country": "Azerbaijan",
    "lat": 40.61832,
    "lon": 47.15014
  },
  {
    "id": "584716",
    "name": "Yelenendorf",
    "country": "Azerbaijan",
    "lat": 40.58584,
    "lon": 46.3189
  },
  {
    "id": "584717",
    "name": "Xa\u00e7maz",
    "country": "Azerbaijan",
    "lat": 41.46426,
    "lon": 48.80565
  },
  {
    "id": "584791",
    "name": "Ujar",
    "country": "Azerbaijan",
    "lat": 40.51902,
    "lon": 47.65423
  },
  {
    "id": "584871",
    "name": "Terter",
    "country": "Azerbaijan",
    "lat": 40.34179,
    "lon": 46.93242
  },
  {
    "id": "584923",
    "name": "Sumqay\u0131t",
    "country": "Azerbaijan",
    "lat": 40.58972,
    "lon": 49.66861
  },
  {
    "id": "585103",
    "name": "Qara\u00e7uxur",
    "country": "Azerbaijan",
    "lat": 40.39667,
    "lon": 49.97361
  },
  {
    "id": "585152",
    "name": "Shamkhor",
    "country": "Azerbaijan",
    "lat": 40.82975,
    "lon": 46.0178
  },
  {
    "id": "585156",
    "name": "Shamakhi",
    "country": "Azerbaijan",
    "lat": 40.63141,
    "lon": 48.64137
  },
  {
    "id": "585170",
    "name": "Sheki",
    "country": "Azerbaijan",
    "lat": 41.19194,
    "lon": 47.17056
  },
  {
    "id": "585184",
    "name": "Sabun\u00e7u",
    "country": "Azerbaijan",
    "lat": 40.4425,
    "lon": 49.94806
  },
  {
    "id": "585187",
    "name": "Sabirabad",
    "country": "Azerbaijan",
    "lat": 40.00869,
    "lon": 48.47701
  },
  {
    "id": "585220",
    "name": "Qusar",
    "country": "Azerbaijan",
    "lat": 41.4275,
    "lon": 48.4302
  },
  {
    "id": "585221",
    "name": "Quba",
    "country": "Azerbaijan",
    "lat": 41.36108,
    "lon": 48.51341
  },
  {
    "id": "585225",
    "name": "Hac\u0131qabul",
    "country": "Azerbaijan",
    "lat": 40.03874,
    "lon": 48.94286
  },
  {
    "id": "585226",
    "name": "Qazax",
    "country": "Azerbaijan",
    "lat": 41.09246,
    "lon": 45.36561
  },
  {
    "id": "585379",
    "name": "Hac\u0131 Zeynalabdin",
    "country": "Azerbaijan",
    "lat": 40.62333,
    "lon": 49.55861
  },
  {
    "id": "585514",
    "name": "Mingelchaur",
    "country": "Azerbaijan",
    "lat": 40.76395,
    "lon": 47.05953
  },
  {
    "id": "585557",
    "name": "Ma\u015fta\u011fa",
    "country": "Azerbaijan",
    "lat": 40.52983,
    "lon": 50.00616
  },
  {
    "id": "585568",
    "name": "Mardakan",
    "country": "Azerbaijan",
    "lat": 40.49182,
    "lon": 50.14292
  },
  {
    "id": "585630",
    "name": "L\u00f6kbatan",
    "country": "Azerbaijan",
    "lat": 40.3256,
    "lon": 49.73376
  },
  {
    "id": "585763",
    "name": "Kyurdarmir",
    "country": "Azerbaijan",
    "lat": 40.34532,
    "lon": 48.15085
  },
  {
    "id": "585915",
    "name": "Khirdalan",
    "country": "Azerbaijan",
    "lat": 40.44808,
    "lon": 49.75502
  },
  {
    "id": "586340",
    "name": "Yeni Suraxan\u0131",
    "country": "Azerbaijan",
    "lat": 40.43026,
    "lon": 50.03598
  },
  {
    "id": "586427",
    "name": "Geoktschai",
    "country": "Azerbaijan",
    "lat": 40.65055,
    "lon": 47.74219
  },
  {
    "id": "586429",
    "name": "H\u00f6vsan",
    "country": "Azerbaijan",
    "lat": 40.37444,
    "lon": 50.08528
  },
  {
    "id": "586523",
    "name": "Ganja",
    "country": "Azerbaijan",
    "lat": 40.68278,
    "lon": 46.36056
  },
  {
    "id": "586763",
    "name": "Divichibazar",
    "country": "Azerbaijan",
    "lat": 41.20117,
    "lon": 48.98712
  },
  {
    "id": "586925",
    "name": "Buzovna",
    "country": "Azerbaijan",
    "lat": 40.51903,
    "lon": 50.11438
  },
  {
    "id": "586968",
    "name": "Biny Selo",
    "country": "Azerbaijan",
    "lat": 40.45076,
    "lon": 50.08686
  },
  {
    "id": "587057",
    "name": "Barda",
    "country": "Azerbaijan",
    "lat": 40.37577,
    "lon": 47.12619
  },
  {
    "id": "587078",
    "name": "Bilajari",
    "country": "Azerbaijan",
    "lat": 40.4444,
    "lon": 49.80566
  },
  {
    "id": "587084",
    "name": "Baku",
    "country": "Azerbaijan",
    "lat": 40.37767,
    "lon": 49.89201
  },
  {
    "id": "587261",
    "name": "Amirdzhan",
    "country": "Azerbaijan",
    "lat": 40.42639,
    "lon": 49.98361
  },
  {
    "id": "587361",
    "name": "Aghsu",
    "country": "Azerbaijan",
    "lat": 40.57028,
    "lon": 48.40087
  },
  {
    "id": "587378",
    "name": "A\u011fda\u015f",
    "country": "Azerbaijan",
    "lat": 40.64699,
    "lon": 47.4738
  },
  {
    "id": "587384",
    "name": "Agdzhabedy",
    "country": "Azerbaijan",
    "lat": 40.05015,
    "lon": 47.45937
  },
  {
    "id": "824003",
    "name": "Bak\u0131xanov",
    "country": "Azerbaijan",
    "lat": 40.41894,
    "lon": 49.96693
  },
  {
    "id": "3186573",
    "name": "Zenica",
    "country": "Bosnia and Herzegovina",
    "lat": 44.20169,
    "lon": 17.90397
  },
  {
    "id": "3187609",
    "name": "Visoko",
    "country": "Bosnia and Herzegovina",
    "lat": 43.98889,
    "lon": 18.17806
  },
  {
    "id": "3188225",
    "name": "Velika Kladu\u0161a",
    "country": "Bosnia and Herzegovina",
    "lat": 45.18497,
    "lon": 15.80579
  },
  {
    "id": "3188582",
    "name": "Tuzla",
    "country": "Bosnia and Herzegovina",
    "lat": 44.53842,
    "lon": 18.66709
  },
  {
    "id": "3188893",
    "name": "Trebinje",
    "country": "Bosnia and Herzegovina",
    "lat": 42.71197,
    "lon": 18.34362
  },
  {
    "id": "3188924",
    "name": "Travnik",
    "country": "Bosnia and Herzegovina",
    "lat": 44.22637,
    "lon": 17.66583
  },
  {
    "id": "3191281",
    "name": "Sarajevo",
    "country": "Bosnia and Herzegovina",
    "lat": 43.84864,
    "lon": 18.35644
  },
  {
    "id": "3192409",
    "name": "Prijedor",
    "country": "Bosnia and Herzegovina",
    "lat": 44.97991,
    "lon": 16.71401
  },
  {
    "id": "3194828",
    "name": "Mostar",
    "country": "Bosnia and Herzegovina",
    "lat": 43.34333,
    "lon": 17.80806
  },
  {
    "id": "3199744",
    "name": "Grada\u010dac",
    "country": "Bosnia and Herzegovina",
    "lat": 44.87851,
    "lon": 18.42764
  },
  {
    "id": "3199779",
    "name": "Gra\u010danica",
    "country": "Bosnia and Herzegovina",
    "lat": 44.70307,
    "lon": 18.3101
  },
  {
    "id": "2967318",
    "name": "Wittenheim",
    "country": "France",
    "lat": 47.8078,
    "lon": 7.33702
  },
  {
    "id": "1185183",
    "name": "L\u0101ksh\u0101m",
    "country": "Bangladesh",
    "lat": 23.24018,
    "lon": 91.12143
  },
  {
    "id": "3200396",
    "name": "Gora\u017ede",
    "country": "Bosnia and Herzegovina",
    "lat": 43.66795,
    "lon": 18.97564
  },
  {
    "id": "3201984",
    "name": "Doboj",
    "country": "Bosnia and Herzegovina",
    "lat": 44.73179,
    "lon": 18.08698
  },
  {
    "id": "2989204",
    "name": "Orsay",
    "country": "France",
    "lat": 48.69572,
    "lon": 2.18727
  },
  {
    "id": "3202822",
    "name": "Cazin",
    "country": "Bosnia and Herzegovina",
    "lat": 44.96694,
    "lon": 15.94306
  },
  {
    "id": "3203099",
    "name": "Bugojno",
    "country": "Bosnia and Herzegovina",
    "lat": 44.05722,
    "lon": 17.45083
  },
  {
    "id": "3203521",
    "name": "Br\u010dko",
    "country": "Bosnia and Herzegovina",
    "lat": 44.86995,
    "lon": 18.81012
  },
  {
    "id": "3203653",
    "name": "Bosanska Krupa",
    "country": "Bosnia and Herzegovina",
    "lat": 44.8825,
    "lon": 16.15139
  },
  {
    "id": "3204186",
    "name": "Bijeljina",
    "country": "Bosnia and Herzegovina",
    "lat": 44.75874,
    "lon": 19.21437
  },
  {
    "id": "3204222",
    "name": "Biha\u0107",
    "country": "Bosnia and Herzegovina",
    "lat": 44.81694,
    "lon": 15.87083
  },
  {
    "id": "3204541",
    "name": "Banja Luka",
    "country": "Bosnia and Herzegovina",
    "lat": 44.77842,
    "lon": 17.19386
  },
  {
    "id": "1185186",
    "name": "Comilla",
    "country": "Bangladesh",
    "lat": 23.46186,
    "lon": 91.18503
  },
  {
    "id": "3337476",
    "name": "Konjic",
    "country": "Bosnia and Herzegovina",
    "lat": 43.65126,
    "lon": 17.96082
  },
  {
    "id": "3374036",
    "name": "Bridgetown",
    "country": "Barbados",
    "lat": 13.10732,
    "lon": -59.62021
  },
  {
    "id": "1185092",
    "name": "Th\u0101kurgaon",
    "country": "Bangladesh",
    "lat": 26.03097,
    "lon": 88.46989
  },
  {
    "id": "1185095",
    "name": "Tekn\u0101f",
    "country": "Bangladesh",
    "lat": 20.85829,
    "lon": 92.29773
  },
  {
    "id": "1185098",
    "name": "Tungi",
    "country": "Bangladesh",
    "lat": 23.89154,
    "lon": 90.40232
  },
  {
    "id": "1185099",
    "name": "Sylhet",
    "country": "Bangladesh",
    "lat": 24.89904,
    "lon": 91.87198
  },
  {
    "id": "1185100",
    "name": "Doh\u0101r",
    "country": "Bangladesh",
    "lat": 23.59311,
    "lon": 90.14251
  },
  {
    "id": "1185106",
    "name": "Jam\u0101lpur",
    "country": "Bangladesh",
    "lat": 24.91965,
    "lon": 89.94812
  },
  {
    "id": "1185108",
    "name": "Shibganj",
    "country": "Bangladesh",
    "lat": 24.68501,
    "lon": 88.15638
  },
  {
    "id": "1185111",
    "name": "S\u0101tkhira",
    "country": "Bangladesh",
    "lat": 22.70817,
    "lon": 89.07185
  },
  {
    "id": "1185115",
    "name": "Sir\u0101jganj",
    "country": "Bangladesh",
    "lat": 24.45771,
    "lon": 89.70802
  },
  {
    "id": "1185116",
    "name": "Netrakona",
    "country": "Bangladesh",
    "lat": 24.88352,
    "lon": 90.72898
  },
  {
    "id": "1185117",
    "name": "Narsingdi",
    "country": "Bangladesh",
    "lat": 23.92298,
    "lon": 90.71768
  },
  {
    "id": "1185120",
    "name": "Sandw\u012bp",
    "country": "Bangladesh",
    "lat": 22.51409,
    "lon": 91.45491
  },
  {
    "id": "1185121",
    "name": "Sh\u0101hz\u0101dpur",
    "country": "Bangladesh",
    "lat": 24.17687,
    "lon": 89.5988
  },
  {
    "id": "1185127",
    "name": "R\u0101mganj",
    "country": "Bangladesh",
    "lat": 23.1006,
    "lon": 90.84989
  },
  {
    "id": "1185128",
    "name": "R\u0101jsh\u0101hi",
    "country": "Bangladesh",
    "lat": 24.374,
    "lon": 88.60114
  },
  {
    "id": "1185138",
    "name": "Pirojpur",
    "country": "Bangladesh",
    "lat": 22.57965,
    "lon": 89.97521
  },
  {
    "id": "1185141",
    "name": "Panchagarh",
    "country": "Bangladesh",
    "lat": 26.33338,
    "lon": 88.55777
  },
  {
    "id": "1185148",
    "name": "Patiya",
    "country": "Bangladesh",
    "lat": 22.29543,
    "lon": 91.979
  },
  {
    "id": "1185149",
    "name": "Parbatipur",
    "country": "Bangladesh",
    "lat": 25.66369,
    "lon": 88.93093
  },
  {
    "id": "1185155",
    "name": "N\u0101r\u0101yanganj",
    "country": "Bangladesh",
    "lat": 23.61352,
    "lon": 90.50298
  },
  {
    "id": "1185156",
    "name": "N\u0101lchiti",
    "country": "Bangladesh",
    "lat": 22.63696,
    "lon": 90.27195
  },
  {
    "id": "1185159",
    "name": "N\u0101garpur",
    "country": "Bangladesh",
    "lat": 24.05783,
    "lon": 89.87696
  },
  {
    "id": "1185160",
    "name": "Nageswari",
    "country": "Bangladesh",
    "lat": 25.96817,
    "lon": 89.69153
  },
  {
    "id": "1185162",
    "name": "Mymensingh",
    "country": "Bangladesh",
    "lat": 24.75636,
    "lon": 90.40646
  },
  {
    "id": "1185164",
    "name": "Mukt\u0101g\u0101cha",
    "country": "Bangladesh",
    "lat": 24.76484,
    "lon": 90.25698
  },
  {
    "id": "1185165",
    "name": "Mirz\u0101pur",
    "country": "Bangladesh",
    "lat": 24.10287,
    "lon": 90.09841
  },
  {
    "id": "1185166",
    "name": "Maulavi B\u0101z\u0101r",
    "country": "Bangladesh",
    "lat": 24.48888,
    "lon": 91.77075
  },
  {
    "id": "1185167",
    "name": "Morrelgonj",
    "country": "Bangladesh",
    "lat": 22.45566,
    "lon": 89.85584
  },
  {
    "id": "1185171",
    "name": "Mehendiganj",
    "country": "Bangladesh",
    "lat": 22.82257,
    "lon": 90.52859
  },
  {
    "id": "1185173",
    "name": "Mathba",
    "country": "Bangladesh",
    "lat": 22.28616,
    "lon": 89.95883
  },
  {
    "id": "1185181",
    "name": "Lalmanirhat",
    "country": "Bangladesh",
    "lat": 25.91719,
    "lon": 89.44595
  },
  {
    "id": "1185191",
    "name": "Kushtia",
    "country": "Bangladesh",
    "lat": 23.9028,
    "lon": 89.11943
  },
  {
    "id": "1185199",
    "name": "K\u0101l\u012bganj",
    "country": "Bangladesh",
    "lat": 23.40964,
    "lon": 89.13801
  },
  {
    "id": "1185204",
    "name": "Jhingerg\u0101cha",
    "country": "Bangladesh",
    "lat": 23.11134,
    "lon": 89.09061
  },
  {
    "id": "1185206",
    "name": "Joypur H\u0101t",
    "country": "Bangladesh",
    "lat": 25.10147,
    "lon": 89.02734
  },
  {
    "id": "1185207",
    "name": "Ishurdi",
    "country": "Bangladesh",
    "lat": 24.12858,
    "lon": 89.06573
  },
  {
    "id": "1185209",
    "name": "Habiganj",
    "country": "Bangladesh",
    "lat": 24.38044,
    "lon": 91.41299
  },
  {
    "id": "1185210",
    "name": "Gaurnadi",
    "country": "Bangladesh",
    "lat": 22.97372,
    "lon": 90.22376
  },
  {
    "id": "1185218",
    "name": "Gafargaon",
    "country": "Bangladesh",
    "lat": 24.432,
    "lon": 90.5585
  },
  {
    "id": "1185224",
    "name": "Feni",
    "country": "Bangladesh",
    "lat": 23.0144,
    "lon": 91.3966
  },
  {
    "id": "1185236",
    "name": "R\u0101ipur",
    "country": "Bangladesh",
    "lat": 23.0391,
    "lon": 90.76808
  },
  {
    "id": "1185239",
    "name": "Sarankhola",
    "country": "Bangladesh",
    "lat": 22.31006,
    "lon": 89.79113
  },
  {
    "id": "1185241",
    "name": "Dhaka",
    "country": "Bangladesh",
    "lat": 23.7104,
    "lon": 90.40744
  },
  {
    "id": "1185247",
    "name": "Chilm\u0101ri",
    "country": "Bangladesh",
    "lat": 25.55613,
    "lon": 89.67097
  },
  {
    "id": "1185249",
    "name": "Chh\u0101galn\u0101iya",
    "country": "Bangladesh",
    "lat": 23.02475,
    "lon": 91.51091
  },
  {
    "id": "1185251",
    "name": "L\u0101lmohan",
    "country": "Bangladesh",
    "lat": 22.33774,
    "lon": 90.73708
  },
  {
    "id": "1185252",
    "name": "Khagrachhari",
    "country": "Bangladesh",
    "lat": 23.10787,
    "lon": 91.97007
  },
  {
    "id": "1185254",
    "name": "Chh\u0101tak",
    "country": "Bangladesh",
    "lat": 25.03852,
    "lon": 91.66958
  },
  {
    "id": "1185260",
    "name": "Bh\u0101tp\u0101ra Abhaynagar",
    "country": "Bangladesh",
    "lat": 23.01472,
    "lon": 89.43936
  },
  {
    "id": "1185262",
    "name": "Bher\u0101m\u0101ra",
    "country": "Bangladesh",
    "lat": 24.02452,
    "lon": 88.99234
  },
  {
    "id": "1185263",
    "name": "Bhairab B\u0101z\u0101r",
    "country": "Bangladesh",
    "lat": 24.0524,
    "lon": 90.9764
  },
  {
    "id": "1185270",
    "name": "B\u0101ndarban",
    "country": "Bangladesh",
    "lat": 22.19534,
    "lon": 92.21946
  },
  {
    "id": "1185272",
    "name": "K\u0101lia",
    "country": "Bangladesh",
    "lat": 23.043,
    "lon": 89.63094
  },
  {
    "id": "1185274",
    "name": "Baniachang",
    "country": "Bangladesh",
    "lat": 24.51863,
    "lon": 91.35787
  },
  {
    "id": "1185276",
    "name": "B\u0101jitpur",
    "country": "Bangladesh",
    "lat": 24.21623,
    "lon": 90.95002
  },
  {
    "id": "1185283",
    "name": "Badarganj",
    "country": "Bangladesh",
    "lat": 25.67419,
    "lon": 89.05377
  },
  {
    "id": "1185293",
    "name": "Narail",
    "country": "Bangladesh",
    "lat": 23.15509,
    "lon": 89.49515
  },
  {
    "id": "1185920",
    "name": "Tungip\u0101ra",
    "country": "Bangladesh",
    "lat": 22.89983,
    "lon": 89.90326
  },
  {
    "id": "1188569",
    "name": "Sarish\u0101b\u0101ri",
    "country": "Bangladesh",
    "lat": 24.75127,
    "lon": 89.83126
  },
  {
    "id": "1189056",
    "name": "Sakhipur",
    "country": "Bangladesh",
    "lat": 24.31988,
    "lon": 90.16943
  },
  {
    "id": "1189638",
    "name": "Raoj\u0101n",
    "country": "Bangladesh",
    "lat": 22.53511,
    "lon": 91.91919
  },
  {
    "id": "1191139",
    "name": "Phultala",
    "country": "Bangladesh",
    "lat": 22.71673,
    "lon": 89.51194
  },
  {
    "id": "1191368",
    "name": "P\u0101lang",
    "country": "Bangladesh",
    "lat": 23.21824,
    "lon": 90.35076
  },
  {
    "id": "1192366",
    "name": "P\u0101r Naogaon",
    "country": "Bangladesh",
    "lat": 24.80418,
    "lon": 88.94875
  },
  {
    "id": "1193823",
    "name": "Nab\u012bnagar",
    "country": "Bangladesh",
    "lat": 23.88791,
    "lon": 90.96792
  },
  {
    "id": "1196292",
    "name": "Lakshm\u012bpur",
    "country": "Bangladesh",
    "lat": 22.9443,
    "lon": 90.83005
  },
  {
    "id": "1197895",
    "name": "Kesabpur",
    "country": "Bangladesh",
    "lat": 22.90725,
    "lon": 89.21954
  },
  {
    "id": "1201753",
    "name": "H\u0101j\u012bganj",
    "country": "Bangladesh",
    "lat": 23.25191,
    "lon": 90.85508
  },
  {
    "id": "1203344",
    "name": "Far\u012bdpur",
    "country": "Bangladesh",
    "lat": 23.60612,
    "lon": 89.84064
  },
  {
    "id": "1205481",
    "name": "Uttar Char Fasson",
    "country": "Bangladesh",
    "lat": 22.22647,
    "lon": 90.71275
  },
  {
    "id": "1205733",
    "name": "Chittagong",
    "country": "Bangladesh",
    "lat": 22.3384,
    "lon": 91.83168
  },
  {
    "id": "1207047",
    "name": "Char Bhadr\u0101san",
    "country": "Bangladesh",
    "lat": 23.30916,
    "lon": 90.22698
  },
  {
    "id": "1209562",
    "name": "Bera",
    "country": "Bangladesh",
    "lat": 24.07821,
    "lon": 89.63262
  },
  {
    "id": "1210565",
    "name": "Burh\u0101nuddin",
    "country": "Bangladesh",
    "lat": 22.49518,
    "lon": 90.72391
  },
  {
    "id": "1336133",
    "name": "S\u0101tkania",
    "country": "Bangladesh",
    "lat": 22.07639,
    "lon": 92.04955
  },
  {
    "id": "1336134",
    "name": "Cox\u2019s B\u0101z\u0101r",
    "country": "Bangladesh",
    "lat": 21.43973,
    "lon": 92.00955
  },
  {
    "id": "1336135",
    "name": "Khulna",
    "country": "Bangladesh",
    "lat": 22.80979,
    "lon": 89.56439
  },
  {
    "id": "1336136",
    "name": "Bhola",
    "country": "Bangladesh",
    "lat": 22.68759,
    "lon": 90.64403
  },
  {
    "id": "1336137",
    "name": "Baris\u0101l",
    "country": "Bangladesh",
    "lat": 22.70497,
    "lon": 90.37013
  },
  {
    "id": "1336140",
    "name": "Jessore",
    "country": "Bangladesh",
    "lat": 23.16971,
    "lon": 89.21371
  },
  {
    "id": "1336143",
    "name": "P\u0101bna",
    "country": "Bangladesh",
    "lat": 24.00644,
    "lon": 89.2372
  },
  {
    "id": "1336144",
    "name": "T\u0101ng\u0101il",
    "country": "Bangladesh",
    "lat": 24.24984,
    "lon": 89.91655
  },
  {
    "id": "1337233",
    "name": "Bogra",
    "country": "Bangladesh",
    "lat": 24.85098,
    "lon": 89.37108
  },
  {
    "id": "1337239",
    "name": "P\u012brgaaj",
    "country": "Bangladesh",
    "lat": 25.85587,
    "lon": 88.35943
  },
  {
    "id": "1337240",
    "name": "Naw\u0101bganj",
    "country": "Bangladesh",
    "lat": 24.59025,
    "lon": 88.27444
  },
  {
    "id": "1337245",
    "name": "M\u0101d\u0101r\u012bpur",
    "country": "Bangladesh",
    "lat": 23.17097,
    "lon": 90.20935
  },
  {
    "id": "1337249",
    "name": "Kishorganj",
    "country": "Bangladesh",
    "lat": 24.43944,
    "lon": 90.78291
  },
  {
    "id": "1462681",
    "name": "Manikchari",
    "country": "Bangladesh",
    "lat": 22.83957,
    "lon": 91.84128
  },
  {
    "id": "1477498",
    "name": "Bh\u0101nd\u0101ria",
    "country": "Bangladesh",
    "lat": 22.48898,
    "lon": 90.06273
  },
  {
    "id": "6414184",
    "name": "Fatikchari",
    "country": "Bangladesh",
    "lat": 22.68768,
    "lon": 91.78123
  },
  {
    "id": "6545349",
    "name": "Saidpur",
    "country": "Bangladesh",
    "lat": 25.77769,
    "lon": 88.89169
  },
  {
    "id": "7701354",
    "name": "Azimpur",
    "country": "Bangladesh",
    "lat": 23.7298,
    "lon": 90.3854
  },
  {
    "id": "9827976",
    "name": "Paltan",
    "country": "Bangladesh",
    "lat": 23.73625,
    "lon": 90.41426
  },
  {
    "id": "2783081",
    "name": "Zwijndrecht",
    "country": "Belgium",
    "lat": 51.21979,
    "lon": 4.32664
  },
  {
    "id": "2783089",
    "name": "Zwevegem",
    "country": "Belgium",
    "lat": 50.81268,
    "lon": 3.33848
  },
  {
    "id": "2783175",
    "name": "Zottegem",
    "country": "Belgium",
    "lat": 50.86955,
    "lon": 3.81052
  },
  {
    "id": "2783188",
    "name": "Zonhoven",
    "country": "Belgium",
    "lat": 50.99064,
    "lon": 5.36819
  },
  {
    "id": "2783204",
    "name": "Zoersel",
    "country": "Belgium",
    "lat": 51.26825,
    "lon": 4.71296
  },
  {
    "id": "2783274",
    "name": "Zemst",
    "country": "Belgium",
    "lat": 50.98318,
    "lon": 4.46079
  },
  {
    "id": "2783293",
    "name": "Zele",
    "country": "Belgium",
    "lat": 51.06566,
    "lon": 4.0403
  },
  {
    "id": "2783308",
    "name": "Zedelgem",
    "country": "Belgium",
    "lat": 51.14236,
    "lon": 3.1368
  },
  {
    "id": "2783310",
    "name": "Zaventem",
    "country": "Belgium",
    "lat": 50.88365,
    "lon": 4.47298
  },
  {
    "id": "2783416",
    "name": "Wuustwezel",
    "country": "Belgium",
    "lat": 51.39214,
    "lon": 4.59546
  },
  {
    "id": "2783632",
    "name": "Willebroek",
    "country": "Belgium",
    "lat": 51.06041,
    "lon": 4.36019
  },
  {
    "id": "2783759",
    "name": "Wevelgem",
    "country": "Belgium",
    "lat": 50.8,
    "lon": 3.16667
  },
  {
    "id": "2783763",
    "name": "Wetteren",
    "country": "Belgium",
    "lat": 51.00526,
    "lon": 3.88341
  },
  {
    "id": "2783801",
    "name": "Westerlo",
    "country": "Belgium",
    "lat": 51.09049,
    "lon": 4.91544
  },
  {
    "id": "2783820",
    "name": "Wervik",
    "country": "Belgium",
    "lat": 50.78069,
    "lon": 3.03854
  },
  {
    "id": "2783941",
    "name": "Wavre",
    "country": "Belgium",
    "lat": 50.71717,
    "lon": 4.60138
  },
  {
    "id": "2783985",
    "name": "Waterloo",
    "country": "Belgium",
    "lat": 50.71469,
    "lon": 4.3991
  },
  {
    "id": "2784068",
    "name": "Waregem",
    "country": "Belgium",
    "lat": 50.88898,
    "lon": 3.42756
  },
  {
    "id": "2784189",
    "name": "Walcourt",
    "country": "Belgium",
    "lat": 50.25401,
    "lon": 4.43796
  },
  {
    "id": "2784548",
    "name": "Vis\u00e9",
    "country": "Belgium",
    "lat": 50.7376,
    "lon": 5.69907
  },
  {
    "id": "2784604",
    "name": "Vilvoorde",
    "country": "Belgium",
    "lat": 50.92814,
    "lon": 4.42938
  },
  {
    "id": "2784821",
    "name": "Verviers",
    "country": "Belgium",
    "lat": 50.58907,
    "lon": 5.86241
  },
  {
    "id": "2785141",
    "name": "Turnhout",
    "country": "Belgium",
    "lat": 51.32254,
    "lon": 4.94471
  },
  {
    "id": "2785169",
    "name": "Tubize",
    "country": "Belgium",
    "lat": 50.69059,
    "lon": 4.2009
  },
  {
    "id": "2785341",
    "name": "Tournai",
    "country": "Belgium",
    "lat": 50.60715,
    "lon": 3.38932
  },
  {
    "id": "2785364",
    "name": "Torhout",
    "country": "Belgium",
    "lat": 51.0656,
    "lon": 3.10085
  },
  {
    "id": "2785389",
    "name": "Tongeren",
    "country": "Belgium",
    "lat": 50.78054,
    "lon": 5.46484
  },
  {
    "id": "2785470",
    "name": "Tienen",
    "country": "Belgium",
    "lat": 50.80745,
    "lon": 4.9378
  },
  {
    "id": "2785476",
    "name": "Tielt",
    "country": "Belgium",
    "lat": 50.99931,
    "lon": 3.32707
  },
  {
    "id": "2785612",
    "name": "Tessenderlo",
    "country": "Belgium",
    "lat": 51.06513,
    "lon": 5.08856
  },
  {
    "id": "2785622",
    "name": "Tervuren",
    "country": "Belgium",
    "lat": 50.82372,
    "lon": 4.51418
  },
  {
    "id": "2785778",
    "name": "Temse",
    "country": "Belgium",
    "lat": 51.12794,
    "lon": 4.21372
  },
  {
    "id": "2786087",
    "name": "Stekene",
    "country": "Belgium",
    "lat": 51.2099,
    "lon": 4.03651
  },
  {
    "id": "2786229",
    "name": "Stabroek",
    "country": "Belgium",
    "lat": 51.33189,
    "lon": 4.37127
  },
  {
    "id": "2786344",
    "name": "Soumagne",
    "country": "Belgium",
    "lat": 50.61385,
    "lon": 5.74679
  },
  {
    "id": "2786420",
    "name": "Soignies",
    "country": "Belgium",
    "lat": 50.57904,
    "lon": 4.07129
  },
  {
    "id": "2786545",
    "name": "Sint-Truiden",
    "country": "Belgium",
    "lat": 50.81679,
    "lon": 5.18647
  },
  {
    "id": "2786559",
    "name": "Sint-Pieters-Leeuw",
    "country": "Belgium",
    "lat": 50.77926,
    "lon": 4.24355
  },
  {
    "id": "2786578",
    "name": "Sint-Niklaas",
    "country": "Belgium",
    "lat": 51.16509,
    "lon": 4.1437
  },
  {
    "id": "2786634",
    "name": "Sint-Kruis",
    "country": "Belgium",
    "lat": 51.21399,
    "lon": 3.24949
  },
  {
    "id": "2786641",
    "name": "Sint-Katelijne-Waver",
    "country": "Belgium",
    "lat": 51.06691,
    "lon": 4.53469
  },
  {
    "id": "2786694",
    "name": "Sint-Gillis-Waas",
    "country": "Belgium",
    "lat": 51.21914,
    "lon": 4.12374
  },
  {
    "id": "2786700",
    "name": "Sint-Genesius-Rode",
    "country": "Belgium",
    "lat": 50.74645,
    "lon": 4.35754
  },
  {
    "id": "2786824",
    "name": "Seraing",
    "country": "Belgium",
    "lat": 50.58362,
    "lon": 5.50115
  },
  {
    "id": "2786963",
    "name": "Schoten",
    "country": "Belgium",
    "lat": 51.25251,
    "lon": 4.50268
  },
  {
    "id": "2787048",
    "name": "Schilde",
    "country": "Belgium",
    "lat": 51.24107,
    "lon": 4.58336
  },
  {
    "id": "2787356",
    "name": "Saint-Nicolas",
    "country": "Belgium",
    "lat": 50.62837,
    "lon": 5.53243
  },
  {
    "id": "2787416",
    "name": "Saint-Ghislain",
    "country": "Belgium",
    "lat": 50.44816,
    "lon": 3.81886
  },
  {
    "id": "2787662",
    "name": "Rotselaar",
    "country": "Belgium",
    "lat": 50.95302,
    "lon": 4.71665
  },
  {
    "id": "2787769",
    "name": "Ronse",
    "country": "Belgium",
    "lat": 50.74574,
    "lon": 3.6005
  },
  {
    "id": "2787889",
    "name": "Roeselare",
    "country": "Belgium",
    "lat": 50.94653,
    "lon": 3.12269
  },
  {
    "id": "2787989",
    "name": "Rixensart",
    "country": "Belgium",
    "lat": 50.71229,
    "lon": 4.52529
  },
  {
    "id": "2788088",
    "name": "Riemst",
    "country": "Belgium",
    "lat": 50.80995,
    "lon": 5.60131
  },
  {
    "id": "2788348",
    "name": "Ranst",
    "country": "Belgium",
    "lat": 51.18983,
    "lon": 4.56533
  },
  {
    "id": "2788499",
    "name": "Quaregnon",
    "country": "Belgium",
    "lat": 50.44067,
    "lon": 3.8653
  },
  {
    "id": "2788506",
    "name": "Puurs",
    "country": "Belgium",
    "lat": 51.07409,
    "lon": 4.28844
  },
  {
    "id": "2788521",
    "name": "Putte",
    "country": "Belgium",
    "lat": 51.05337,
    "lon": 4.63263
  },
  {
    "id": "2788726",
    "name": "Poperinge",
    "country": "Belgium",
    "lat": 50.85386,
    "lon": 2.72659
  },
  {
    "id": "2788765",
    "name": "Pont-\u00e0-Celles",
    "country": "Belgium",
    "lat": 50.50518,
    "lon": 4.36887
  },
  {
    "id": "2789162",
    "name": "P\u00e9ruwelz",
    "country": "Belgium",
    "lat": 50.50819,
    "lon": 3.59373
  },
  {
    "id": "2789232",
    "name": "Peer",
    "country": "Belgium",
    "lat": 51.1303,
    "lon": 5.45952
  },
  {
    "id": "2789413",
    "name": "Overijse",
    "country": "Belgium",
    "lat": 50.77436,
    "lon": 4.53461
  },
  {
    "id": "2789471",
    "name": "Oupeye",
    "country": "Belgium",
    "lat": 50.71184,
    "lon": 5.6468
  },
  {
    "id": "2789529",
    "name": "Oudenaarde",
    "country": "Belgium",
    "lat": 50.85168,
    "lon": 3.60891
  },
  {
    "id": "2789751",
    "name": "Oostkamp",
    "country": "Belgium",
    "lat": 51.15432,
    "lon": 3.23128
  },
  {
    "id": "2789786",
    "name": "Ostend",
    "country": "Belgium",
    "lat": 51.21551,
    "lon": 2.927
  },
  {
    "id": "2790101",
    "name": "Nivelles",
    "country": "Belgium",
    "lat": 50.59833,
    "lon": 4.32848
  },
  {
    "id": "2790114",
    "name": "Ninove",
    "country": "Belgium",
    "lat": 50.82776,
    "lon": 4.02657
  },
  {
    "id": "2790135",
    "name": "Nijlen",
    "country": "Belgium",
    "lat": 51.16096,
    "lon": 4.67008
  },
  {
    "id": "2790357",
    "name": "Neerpelt",
    "country": "Belgium",
    "lat": 51.22807,
    "lon": 5.4427
  },
  {
    "id": "2790471",
    "name": "Namur",
    "country": "Belgium",
    "lat": 50.4669,
    "lon": 4.86746
  },
  {
    "id": "2790595",
    "name": "Mouscron",
    "country": "Belgium",
    "lat": 50.74497,
    "lon": 3.20639
  },
  {
    "id": "2790676",
    "name": "Mortsel",
    "country": "Belgium",
    "lat": 51.16697,
    "lon": 4.45127
  },
  {
    "id": "2790697",
    "name": "Morlanwelz-Mariemont",
    "country": "Belgium",
    "lat": 50.45502,
    "lon": 4.24519
  },
  {
    "id": "2790869",
    "name": "Mons",
    "country": "Belgium",
    "lat": 50.45413,
    "lon": 3.95229
  },
  {
    "id": "2791067",
    "name": "Mol",
    "country": "Belgium",
    "lat": 51.19188,
    "lon": 5.11662
  },
  {
    "id": "2791194",
    "name": "Middelkerke",
    "country": "Belgium",
    "lat": 51.18532,
    "lon": 2.82077
  },
  {
    "id": "2791315",
    "name": "Merelbeke",
    "country": "Belgium",
    "lat": 50.99447,
    "lon": 3.74621
  },
  {
    "id": "2791343",
    "name": "Menen",
    "country": "Belgium",
    "lat": 50.79722,
    "lon": 3.12245
  },
  {
    "id": "2791424",
    "name": "Meise",
    "country": "Belgium",
    "lat": 50.93934,
    "lon": 4.32655
  },
  {
    "id": "2791537",
    "name": "Mechelen",
    "country": "Belgium",
    "lat": 51.02574,
    "lon": 4.47762
  },
  {
    "id": "2791744",
    "name": "Marche-en-Famenne",
    "country": "Belgium",
    "lat": 50.22678,
    "lon": 5.34416
  },
  {
    "id": "2791814",
    "name": "Manage",
    "country": "Belgium",
    "lat": 50.50312,
    "lon": 4.23589
  },
  {
    "id": "2791857",
    "name": "Maldegem",
    "country": "Belgium",
    "lat": 51.20737,
    "lon": 3.44511
  },
  {
    "id": "2791961",
    "name": "Maasmechelen",
    "country": "Belgium",
    "lat": 50.96545,
    "lon": 5.69452
  },
  {
    "id": "2791964",
    "name": "Maaseik",
    "country": "Belgium",
    "lat": 51.09802,
    "lon": 5.78379
  },
  {
    "id": "2792073",
    "name": "Louvain-la-Neuve",
    "country": "Belgium",
    "lat": 50.66829,
    "lon": 4.61443
  },
  {
    "id": "2792165",
    "name": "Londerzeel",
    "country": "Belgium",
    "lat": 51.00468,
    "lon": 4.30304
  },
  {
    "id": "2792179",
    "name": "Lommel",
    "country": "Belgium",
    "lat": 51.23074,
    "lon": 5.31349
  },
  {
    "id": "2792196",
    "name": "Lokeren",
    "country": "Belgium",
    "lat": 51.10364,
    "lon": 3.99339
  },
  {
    "id": "2792235",
    "name": "Lochristi",
    "country": "Belgium",
    "lat": 51.09644,
    "lon": 3.83194
  },
  {
    "id": "2792360",
    "name": "Lille",
    "country": "Belgium",
    "lat": 51.24197,
    "lon": 4.82313
  },
  {
    "id": "2792397",
    "name": "Lier",
    "country": "Belgium",
    "lat": 51.13128,
    "lon": 4.57041
  },
  {
    "id": "2792413",
    "name": "Li\u00e8ge",
    "country": "Belgium",
    "lat": 50.63373,
    "lon": 5.56749
  },
  {
    "id": "2792482",
    "name": "Leuven",
    "country": "Belgium",
    "lat": 50.87959,
    "lon": 4.70093
  },
  {
    "id": "2792567",
    "name": "Lessines",
    "country": "Belgium",
    "lat": 50.71104,
    "lon": 3.83579
  },
  {
    "id": "2793077",
    "name": "Lede",
    "country": "Belgium",
    "lat": 50.96626,
    "lon": 3.98594
  },
  {
    "id": "2793144",
    "name": "Lebbeke",
    "country": "Belgium",
    "lat": 51.00464,
    "lon": 4.13457
  },
  {
    "id": "2793446",
    "name": "Lanaken",
    "country": "Belgium",
    "lat": 50.89318,
    "lon": 5.6468
  },
  {
    "id": "2793508",
    "name": "La Louvi\u00e8re",
    "country": "Belgium",
    "lat": 50.48657,
    "lon": 4.18785
  },
  {
    "id": "2794055",
    "name": "Kortrijk",
    "country": "Belgium",
    "lat": 50.82803,
    "lon": 3.26487
  },
  {
    "id": "2794070",
    "name": "Kortenberg",
    "country": "Belgium",
    "lat": 50.88982,
    "lon": 4.54353
  },
  {
    "id": "2794117",
    "name": "Kontich",
    "country": "Belgium",
    "lat": 51.13213,
    "lon": 4.44706
  },
  {
    "id": "2794166",
    "name": "Koksijde",
    "country": "Belgium",
    "lat": 51.11642,
    "lon": 2.63772
  },
  {
    "id": "2794663",
    "name": "Kasterlee",
    "country": "Belgium",
    "lat": 51.24118,
    "lon": 4.96651
  },
  {
    "id": "2794730",
    "name": "Kapellen",
    "country": "Belgium",
    "lat": 51.31377,
    "lon": 4.43539
  },
  {
    "id": "2794788",
    "name": "Kalmthout",
    "country": "Belgium",
    "lat": 51.38442,
    "lon": 4.47556
  },
  {
    "id": "2795009",
    "name": "Izegem",
    "country": "Belgium",
    "lat": 50.91396,
    "lon": 3.21378
  },
  {
    "id": "2795100",
    "name": "Ieper",
    "country": "Belgium",
    "lat": 50.85114,
    "lon": 2.88569
  },
  {
    "id": "2795113",
    "name": "Huy",
    "country": "Belgium",
    "lat": 50.51894,
    "lon": 5.23284
  },
  {
    "id": "2795261",
    "name": "Houthalen",
    "country": "Belgium",
    "lat": 51.03427,
    "lon": 5.37429
  },
  {
    "id": "2795398",
    "name": "Hoogstraten",
    "country": "Belgium",
    "lat": 51.40029,
    "lon": 4.76034
  },
  {
    "id": "2795730",
    "name": "Hoboken",
    "country": "Belgium",
    "lat": 51.17611,
    "lon": 4.34844
  },
  {
    "id": "2795800",
    "name": "Heusden",
    "country": "Belgium",
    "lat": 51.03664,
    "lon": 5.28013
  },
  {
    "id": "2795908",
    "name": "Herzele",
    "country": "Belgium",
    "lat": 50.88681,
    "lon": 3.89014
  },
  {
    "id": "2795912",
    "name": "Herve",
    "country": "Belgium",
    "lat": 50.64083,
    "lon": 5.79353
  },
  {
    "id": "2795930",
    "name": "Herstal",
    "country": "Belgium",
    "lat": 50.66415,
    "lon": 5.62346
  },
  {
    "id": "2796009",
    "name": "Herentals",
    "country": "Belgium",
    "lat": 51.17655,
    "lon": 4.83248
  },
  {
    "id": "2796012",
    "name": "Herent",
    "country": "Belgium",
    "lat": 50.90861,
    "lon": 4.67056
  },
  {
    "id": "2796132",
    "name": "Helchteren",
    "country": "Belgium",
    "lat": 51.05591,
    "lon": 5.38244
  },
  {
    "id": "2796153",
    "name": "Heist-op-den-Berg",
    "country": "Belgium",
    "lat": 51.07537,
    "lon": 4.72827
  },
  {
    "id": "2796491",
    "name": "Hasselt",
    "country": "Belgium",
    "lat": 50.93106,
    "lon": 5.33781
  },
  {
    "id": "2796542",
    "name": "Harelbeke",
    "country": "Belgium",
    "lat": 50.85343,
    "lon": 3.30935
  },
  {
    "id": "2796637",
    "name": "Hamme",
    "country": "Belgium",
    "lat": 51.09822,
    "lon": 4.13705
  },
  {
    "id": "2796696",
    "name": "Halle",
    "country": "Belgium",
    "lat": 50.73385,
    "lon": 4.23454
  },
  {
    "id": "2796833",
    "name": "Haaltert",
    "country": "Belgium",
    "lat": 50.90634,
    "lon": 4.00093
  },
  {
    "id": "2797114",
    "name": "Grimbergen",
    "country": "Belgium",
    "lat": 50.93409,
    "lon": 4.37213
  },
  {
    "id": "2797638",
    "name": "Geraardsbergen",
    "country": "Belgium",
    "lat": 50.77343,
    "lon": 3.88223
  },
  {
    "id": "2797656",
    "name": "Gent",
    "country": "Belgium",
    "lat": 51.05,
    "lon": 3.71667
  },
  {
    "id": "2797670",
    "name": "Genk",
    "country": "Belgium",
    "lat": 50.965,
    "lon": 5.50082
  },
  {
    "id": "2797713",
    "name": "Gembloux",
    "country": "Belgium",
    "lat": 50.56149,
    "lon": 4.69889
  },
  {
    "id": "2797779",
    "name": "Geel",
    "country": "Belgium",
    "lat": 51.16557,
    "lon": 4.98917
  },
  {
    "id": "2798023",
    "name": "Frameries",
    "country": "Belgium",
    "lat": 50.40578,
    "lon": 3.89603
  },
  {
    "id": "2798297",
    "name": "Fleurus",
    "country": "Belgium",
    "lat": 50.48351,
    "lon": 4.55006
  },
  {
    "id": "2798301",
    "name": "Fl\u00e9ron",
    "country": "Belgium",
    "lat": 50.61516,
    "lon": 5.68062
  },
  {
    "id": "2798307",
    "name": "Fl\u00e9malle-Haute",
    "country": "Belgium",
    "lat": 50.59994,
    "lon": 5.44471
  },
  {
    "id": "2798551",
    "name": "Evergem",
    "country": "Belgium",
    "lat": 51.10529,
    "lon": 3.704
  },
  {
    "id": "2798573",
    "name": "Eupen",
    "country": "Belgium",
    "lat": 50.6279,
    "lon": 6.03647
  },
  {
    "id": "2798615",
    "name": "Essen",
    "country": "Belgium",
    "lat": 51.46791,
    "lon": 4.46901
  },
  {
    "id": "2798987",
    "name": "Eeklo",
    "country": "Belgium",
    "lat": 51.18703,
    "lon": 3.55654
  },
  {
    "id": "2799007",
    "name": "Edegem",
    "country": "Belgium",
    "lat": 51.15662,
    "lon": 4.44504
  },
  {
    "id": "2799090",
    "name": "Duffel",
    "country": "Belgium",
    "lat": 51.09554,
    "lon": 4.50903
  },
  {
    "id": "2799226",
    "name": "Dour",
    "country": "Belgium",
    "lat": 50.39583,
    "lon": 3.77792
  },
  {
    "id": "2799365",
    "name": "Dilbeek",
    "country": "Belgium",
    "lat": 50.84799,
    "lon": 4.25972
  },
  {
    "id": "2799369",
    "name": "Diksmuide",
    "country": "Belgium",
    "lat": 51.03248,
    "lon": 2.86384
  },
  {
    "id": "2799397",
    "name": "Diest",
    "country": "Belgium",
    "lat": 50.98923,
    "lon": 5.05062
  },
  {
    "id": "2799412",
    "name": "Diepenbeek",
    "country": "Belgium",
    "lat": 50.90769,
    "lon": 5.41875
  },
  {
    "id": "2799496",
    "name": "Destelbergen",
    "country": "Belgium",
    "lat": 51.05952,
    "lon": 3.79899
  },
  {
    "id": "2799645",
    "name": "Dendermonde",
    "country": "Belgium",
    "lat": 51.02869,
    "lon": 4.10106
  },
  {
    "id": "2799647",
    "name": "Denderleeuw",
    "country": "Belgium",
    "lat": 50.88506,
    "lon": 4.07601
  },
  {
    "id": "2799746",
    "name": "Deinze",
    "country": "Belgium",
    "lat": 50.98175,
    "lon": 3.53096
  },
  {
    "id": "2800063",
    "name": "Courcelles",
    "country": "Belgium",
    "lat": 50.46379,
    "lon": 4.3747
  },
  {
    "id": "2800220",
    "name": "Colfontaine",
    "country": "Belgium",
    "lat": 50.4141,
    "lon": 3.85569
  },
  {
    "id": "2800438",
    "name": "Chaudfontaine",
    "country": "Belgium",
    "lat": 50.5828,
    "lon": 5.6341
  },
  {
    "id": "2800448",
    "name": "Ch\u00e2telet",
    "country": "Belgium",
    "lat": 50.40338,
    "lon": 4.52826
  },
  {
    "id": "2800461",
    "name": "Chasse Royale",
    "country": "Belgium",
    "lat": 50.42842,
    "lon": 3.95001
  },
  {
    "id": "2800481",
    "name": "Charleroi",
    "country": "Belgium",
    "lat": 50.41136,
    "lon": 4.44448
  },
  {
    "id": "2800866",
    "name": "Brussels",
    "country": "Belgium",
    "lat": 50.85045,
    "lon": 4.34878
  },
  {
    "id": "2800931",
    "name": "Brugge",
    "country": "Belgium",
    "lat": 51.20892,
    "lon": 3.22424
  },
  {
    "id": "2801106",
    "name": "Brecht",
    "country": "Belgium",
    "lat": 51.35024,
    "lon": 4.63829
  },
  {
    "id": "2801117",
    "name": "Brasschaat",
    "country": "Belgium",
    "lat": 51.2912,
    "lon": 4.49182
  },
  {
    "id": "2801150",
    "name": "Braine-le-Comte",
    "country": "Belgium",
    "lat": 50.60979,
    "lon": 4.14658
  },
  {
    "id": "2801154",
    "name": "Braine-l'Alleud",
    "country": "Belgium",
    "lat": 50.68363,
    "lon": 4.36784
  },
  {
    "id": "2801226",
    "name": "Boussu",
    "country": "Belgium",
    "lat": 50.43417,
    "lon": 3.7944
  },
  {
    "id": "2801447",
    "name": "Bornem",
    "country": "Belgium",
    "lat": 51.09716,
    "lon": 4.24364
  },
  {
    "id": "2801494",
    "name": "Boom",
    "country": "Belgium",
    "lat": 51.09242,
    "lon": 4.3717
  },
  {
    "id": "2801858",
    "name": "Blankenberge",
    "country": "Belgium",
    "lat": 51.31306,
    "lon": 3.13227
  },
  {
    "id": "2801922",
    "name": "Binche",
    "country": "Belgium",
    "lat": 50.41155,
    "lon": 4.16469
  },
  {
    "id": "2801924",
    "name": "Bilzen",
    "country": "Belgium",
    "lat": 50.87325,
    "lon": 5.5184
  },
  {
    "id": "2802031",
    "name": "Beveren",
    "country": "Belgium",
    "lat": 51.21187,
    "lon": 4.25633
  },
  {
    "id": "2802170",
    "name": "Beringen",
    "country": "Belgium",
    "lat": 51.04954,
    "lon": 5.22606
  },
  {
    "id": "2802433",
    "name": "Beersel",
    "country": "Belgium",
    "lat": 50.76589,
    "lon": 4.3002
  },
  {
    "id": "2802435",
    "name": "Beerse",
    "country": "Belgium",
    "lat": 51.31927,
    "lon": 4.85304
  },
  {
    "id": "2802743",
    "name": "Balen",
    "country": "Belgium",
    "lat": 51.16837,
    "lon": 5.17027
  },
  {
    "id": "2803010",
    "name": "Ath",
    "country": "Belgium",
    "lat": 50.62937,
    "lon": 3.77801
  },
  {
    "id": "2803033",
    "name": "Asse",
    "country": "Belgium",
    "lat": 50.91011,
    "lon": 4.19836
  },
  {
    "id": "2803073",
    "name": "Arlon",
    "country": "Belgium",
    "lat": 49.68333,
    "lon": 5.81667
  },
  {
    "id": "2803138",
    "name": "Antwerpen",
    "country": "Belgium",
    "lat": 51.21989,
    "lon": 4.40346
  },
  {
    "id": "2803160",
    "name": "Ans",
    "country": "Belgium",
    "lat": 50.6623,
    "lon": 5.52029
  },
  {
    "id": "2803204",
    "name": "Andenne",
    "country": "Belgium",
    "lat": 50.48941,
    "lon": 5.09513
  },
  {
    "id": "2803429",
    "name": "Aarschot",
    "country": "Belgium",
    "lat": 50.98715,
    "lon": 4.83695
  },
  {
    "id": "2803443",
    "name": "Aalter",
    "country": "Belgium",
    "lat": 51.09017,
    "lon": 3.44693
  },
  {
    "id": "2803448",
    "name": "Aalst",
    "country": "Belgium",
    "lat": 50.93604,
    "lon": 4.0355
  },
  {
    "id": "2353197",
    "name": "Zorgo",
    "country": "Burkina Faso",
    "lat": 12.24922,
    "lon": -0.61527
  },
  {
    "id": "2353688",
    "name": "Yako",
    "country": "Burkina Faso",
    "lat": 12.9591,
    "lon": -2.26075
  },
  {
    "id": "2354176",
    "name": "Tougan",
    "country": "Burkina Faso",
    "lat": 13.0725,
    "lon": -3.0694
  },
  {
    "id": "2354349",
    "name": "Titao",
    "country": "Burkina Faso",
    "lat": 13.76667,
    "lon": -2.06667
  },
  {
    "id": "2354675",
    "name": "Tenkodogo",
    "country": "Burkina Faso",
    "lat": 11.78,
    "lon": -0.36972
  },
  {
    "id": "2356228",
    "name": "R\u00e9o",
    "country": "Burkina Faso",
    "lat": 12.31963,
    "lon": -2.47094
  },
  {
    "id": "2356454",
    "name": "P\u00f4",
    "country": "Burkina Faso",
    "lat": 11.16972,
    "lon": -1.145
  },